[{
	"url":"https://www.geekswhodrink.com/venues/405778824",
	"lat":"34.0831511",
	"long":"-117.1418331",
	"name":"Hangar 24 Brewery Redlands",
	"address":"1710 Sessums Drive, Redlands, CA 92374",
	"logo_url":"https://s3.amazonaws.com/motherbrain-prod/vlogo_1655508636465",
	"day":"Thursdays",
	"time":"2022-09-08T01:00:00+0000"
},{
	"url":"https://www.geekswhodrink.com/venues/2372970504",
	"lat":"33.642858",
	"long":"-117.5991995",
	"name":"Selma&#039;s Chicago Pizzeria &amp; Tap Room RSM",
	"address":"30461 Avenida de las Flores, Rancho Santa Margarita, CA 92688",
	"logo_url":"https://s3.amazonaws.com/motherbrain-prod/vlogo_1675973702571",
	"day":"Tuesdays",
	"time":"2023-03-29T00:30:00+0000"
},{
	"url":"https://www.geekswhodrink.com/venues/2207470629",
	"lat":"33.6512136",
	"long":"-117.7437513",
	"name":"Dave and Buster&#039;s - Irvine",
	"address":"661 Spectrum Center Drive, Irvine, CA 92618",
	"logo_url":"https://s3.amazonaws.com/motherbrain-prod/vlogo_1661541740420",
	"day":"Tuesdays",
	"time":"2022-09-07T01:30:00+0000"
},{
	"url":"https://www.geekswhodrink.com/venues/940191141",
	"lat":"33.6681638",
	"long":"-117.7640527",
	"name":"Left Coast Brewing Company (Irvine)",
	"address":"6652 Irvine Center Dr., Irvine, CA 92618",
	"logo_url":"https://s3.amazonaws.com/motherbrain-prod/vlogo_1537552537800",
	"day":"Wednesdays",
	"time":"2021-07-22T01:00:00+0000"
},{
	"url":"https://www.geekswhodrink.com/venues/442716919",
	"lat":"33.7482573",
	"long":"-117.8651894",
	"name":"Wursthaus",
	"address":"305 E 4th St, #106, Santa Ana, CA 92701",
	"logo_url":"https://s3.amazonaws.com/motherbrain-prod/vlogo_1504893520705",
	"day":"Wednesdays",
	"time":"2021-07-22T01:00:00+0000"
},{
	"url":"https://www.geekswhodrink.com/venues/942938761",
	"lat":"33.749299",
	"long":"-117.867246",
	"name":"Mission Control McFadden Public Market",
	"address":"515 N Main St., Santa Ana, CA 92701",
	"logo_url":"https://s3.amazonaws.com/motherbrain-prod/vlogo_1632154586597",
	"day":"Thursdays",
	"time":"2021-10-01T01:00:00+0000"
},{
	"url":"https://www.geekswhodrink.com/venues/595861337",
	"lat":"33.4582739",
	"long":"-117.5889807",
	"name":"Left Coast Brewing Company (Saturday)",
	"address":"1251 Puerta Del Sol, San Clemente, CA 92672",
	"logo_url":"https://s3.amazonaws.com/motherbrain-prod/vlogo_1504893084396",
	"day":"Saturdays",
	"time":"2021-04-11T01:00:00+0000"
},{
	"url":"https://www.geekswhodrink.com/venues/2370696910",
	"lat":"33.8696062",
	"long":"-117.9283912",
	"name":"Bootlegger&#039;s Brewery - Fullerton",
	"address":"130 S highland, Fullerton, CA 92832",
	"logo_url":"https://s3.amazonaws.com/motherbrain-prod/vlogo_1675815151222",
	"day":"Wednesdays",
	"time":"2023-03-16T01:00:00+0000"
},{
	"url":"https://www.geekswhodrink.com/venues/2391550399",
	"lat":"33.4489329",
	"long":"-117.6059392",
	"name":"Artifex Brewing (Starts on April 13!)",
	"address":"919 Calle Amanecer Ste A, San Clemente, CA 92673",
	"logo_url":"https://s3.amazonaws.com/motherbrain-prod/vlogo_1677517963520",
	"day":"Thursdays",
	"time":"2023-04-14T01:00:00+0000"
},{
	"url":"https://www.geekswhodrink.com/venues/37055180",
	"lat":"33.6692827",
	"long":"-117.8807811",
	"name":"Durty Nelly&#039;s",
	"address":"2915 Redhill Ave, Costa Mesa, CA 92627",
	"logo_url":"https://s3.amazonaws.com/motherbrain-prod/vlogo_1673496882474",
	"day":"Tuesdays",
	"time":"2023-01-18T02:00:00+0000"
},{
	"url":"https://www.geekswhodrink.com/venues/2370698719",
	"lat":"33.6768478",
	"long":"-117.8855811",
	"name":"Bootlegger&#039;s Brewery - Costa Mesa",
	"address":"696 Randolph Av Ste B, Costa Mesa, CA 92626",
	"logo_url":"https://s3.amazonaws.com/motherbrain-prod/vlogo_1675815314638",
	"day":"Wednesdays",
	"time":"2023-03-16T01:00:00+0000"
},{
	"url":"https://www.geekswhodrink.com/venues/2282351303",
	"lat":"33.6123129",
	"long":"-117.8746856",
	"name":"Muldoons Irish Pub",
	"address":"202 Newport Center Dr, Newport Beach, CA 92660",
	"logo_url":"https://s3.amazonaws.com/motherbrain-prod/vlogo_1667841405716",
	"day":"Tuesdays",
	"time":"2022-12-28T02:00:00+0000"
},{
	"url":"https://www.geekswhodrink.com/venues/1786618564",
	"lat":"33.7127575",
	"long":"-118.063389",
	"name":"Riip Beer Company",
	"address":"17214 Pacific Coast HWY, Huntington Beach, CA 92649",
	"logo_url":"https://s3.amazonaws.com/motherbrain-prod/vlogo_1624574292843",
	"day":"Wednesdays",
	"time":"2021-07-22T01:00:00+0000"
},{
	"url":"https://www.geekswhodrink.com/venues/2330630369",
	"lat":"33.9422913",
	"long":"-118.1329598",
	"name":"Look Cinemas - Downey",
	"address":"8200 3rd St, Downey, CA 90241",
	"logo_url":"https://s3.amazonaws.com/motherbrain-prod/vlogo_1672769875944",
	"day":"Wednesdays",
	"time":"2023-01-19T02:30:00+0000"
},{
	"url":"https://www.geekswhodrink.com/venues/1940773121",
	"lat":"33.7594419",
	"long":"-118.1336177",
	"name":"Rance&#039;s Chicago Pizza (Long Beach)",
	"address":"5258 E. 2nd St, Long Beach, CA 90803",
	"logo_url":"https://s3.amazonaws.com/motherbrain-prod/vlogo_1638821072242",
	"day":"Tuesdays",
	"time":"2022-01-12T02:00:00+0000"
},{
	"url":"https://www.geekswhodrink.com/venues/598809227",
	"lat":"34.1466284",
	"long":"-118.1299577",
	"name":"T Boyle&#039;s Tavern (Tuesday)",
	"address":"37 N Catalina Ave, Pasadena, CA 91106",
	"logo_url":"https://s3.amazonaws.com/motherbrain-prod/vlogo_1507611754743",
	"day":"Tuesdays",
	"time":"2021-07-07T02:00:00+0000"
},{
	"url":"https://www.geekswhodrink.com/venues/87269140",
	"lat":"34.1468433",
	"long":"-118.1492848",
	"name":"The Blind Donkey (Pasadena)",
	"address":"53 E. Union Street Pasadena, CA 91103",
	"logo_url":"https://s3.amazonaws.com/motherbrain-prod/vlogo_1507612093096",
	"day":"Wednesdays",
	"time":"2021-06-17T01:30:00+0000"
},{
	"url":"https://www.geekswhodrink.com/venues/162167740",
	"lat":"33.7690667",
	"long":"-118.1866564",
	"name":"The Blind Donkey (Long Beach)",
	"address":"149 Linden Avenue, Unit B 100, Long Beach, CA 90802",
	"logo_url":"https://s3.amazonaws.com/motherbrain-prod/vlogo_1507611675996",
	"day":"Tuesdays",
	"time":"2021-06-16T01:00:00+0000"
},{
	"url":"https://www.geekswhodrink.com/venues/597626367",
	"lat":"34.1210989",
	"long":"-118.206299",
	"name":"The York",
	"address":"5018 York Blvd, Los Angeles, CA 90042",
	"logo_url":"https://s3.amazonaws.com/motherbrain-prod/vlogo_1639758766295",
	"day":"Mondays",
	"time":"2021-10-26T03:00:00+0000"
},{
	"url":"https://www.geekswhodrink.com/venues/472261107",
	"lat":"34.1137406",
	"long":"-118.2349602",
	"name":"Verdugo Bar",
	"address":"3408 Verdugo Road, Los Angeles, CA 90065",
	"logo_url":"https://s3.amazonaws.com/motherbrain-prod/vlogo_1507611649859",
	"day":"Tuesdays",
	"time":"2016-09-14T01:30:00+0000"
},{
	"url":"https://www.geekswhodrink.com/venues/1988221784",
	"lat":"34.0479433",
	"long":"-118.2590337",
	"name":"Video Vortex @Alamo Drafthouse Los Angeles",
	"address":"700 W 7th St, u240, Los Angeles, CA 90017",
	"logo_url":"https://s3.amazonaws.com/motherbrain-prod/vlogo_1643398634963",
	"day":"Wednesdays",
	"time":"2022-02-17T03:00:00+0000"
},{
	"url":"https://www.geekswhodrink.com/venues/597626299",
	"lat":"34.0992074",
	"long":"-118.2589245",
	"name":"The Red Lion Tavern",
	"address":"2366 Glendale Blvd, Los Angeles, CA 90039",
	"logo_url":"https://s3.amazonaws.com/motherbrain-prod/vlogo_1507611378335",
	"day":"Mondays",
	"time":"2021-07-13T02:00:00+0000"
},{
	"url":"https://www.geekswhodrink.com/venues/2323918734",
	"lat":"34.1461661",
	"long":"-118.2468034",
	"name":"Dave&#039;s On Broadway",
	"address":"708 E. Broadway, Glendale, CA 91205",
	"logo_url":"https://s3.amazonaws.com/motherbrain-prod/vlogo_1672189659383",
	"day":"Tuesdays",
	"time":"2023-01-25T02:00:00+0000"
},{
	"url":"https://www.geekswhodrink.com/venues/2045783031",
	"lat":"34.1346304",
	"long":"-118.255263",
	"name":"The Greyhound",
	"address":"933 S Brand Blvd., Glendale, CA 91204",
	"logo_url":"https://s3.amazonaws.com/motherbrain-prod/vlogo_1647981411114",
	"day":"Tuesdays",
	"time":"2022-04-27T01:00:00+0000"
},{
	"url":"https://www.geekswhodrink.com/venues/598328977",
	"lat":"34.1234922",
	"long":"-118.2679693",
	"name":"The Bigfoot Lodge (East)",
	"address":"3172 Los Feliz Blvd, Los Angeles, CA 90039",
	"logo_url":"https://s3.amazonaws.com/motherbrain-prod/vlogo_1507612249531",
	"day":"Wednesdays",
	"time":"2021-07-08T03:00:00+0000"
},{
	"url":"https://www.geekswhodrink.com/venues/1769725137",
	"lat":"33.9061277",
	"long":"-118.3076904",
	"name":"Eureka Brewing Co.",
	"address":"13723 1/2 Harvard Pl, Gardena, CA 90249",
	"logo_url":"https://s3.amazonaws.com/motherbrain-prod/vlogo_1623258327875",
	"day":"Thursdays",
	"time":"2021-07-09T01:00:00+0000"
},{
	"url":"https://www.geekswhodrink.com/venues/2170144638",
	"lat":"34.0748548",
	"long":"-118.3089152",
	"name":"Biergarten - LA",
	"address":"206 N Western Ave, Los Angeles, CA 90004",
	"logo_url":"https://s3.amazonaws.com/motherbrain-prod/vlogo_1658506381479",
	"day":"Tuesdays",
	"time":"2022-08-17T02:00:00+0000"
},{
	"url":"https://www.geekswhodrink.com/venues/2330287487",
	"lat":"34.2362255",
	"long":"-118.2589778",
	"name":"Therapy, the Roar Room",
	"address":"3645 Foothill Blvd, Glendale, CA 91214",
	"logo_url":"https://s3.amazonaws.com/motherbrain-prod/vlogo_1672246078155",
	"day":"Mondays",
	"time":"2023-01-31T02:00:00+0000"
},{
	"url":"https://www.geekswhodrink.com/venues/2340087794",
	"lat":"33.8208228",
	"long":"-118.3521068",
	"name":"Smog City Brewing",
	"address":"22755 Hawthorne Blvd., Torrance, CA 90505",
	"logo_url":"https://s3.amazonaws.com/motherbrain-prod/vlogo_1673289990660",
	"day":"Tuesdays",
	"time":"2023-02-15T02:00:00+0000"
},{
	"url":"https://www.geekswhodrink.com/venues/1880377439",
	"lat":"34.1565991",
	"long":"-118.3338897",
	"name":"Brews Brothers Brewpub",
	"address":"3000 West Olive Ave, Burbank, CA 91505",
	"logo_url":"https://s3.amazonaws.com/motherbrain-prod/vlogo_1633379562414",
	"day":"Sundays",
	"time":"2021-11-08T02:00:00+0000"
},{
	"url":"https://www.geekswhodrink.com/venues/923336726",
	"lat":"33.8636677",
	"long":"-118.4001763",
	"name":"Hermosa Brewing Co.",
	"address":"1342 Hermosa Ave, Hermosa Beach, CA 90254",
	"logo_url":"https://s3.amazonaws.com/motherbrain-prod/vlogo_1535585206412",
	"day":"Wednesdays",
	"time":"2021-06-17T01:00:00+0000"
},{
	"url":"https://www.geekswhodrink.com/venues/844462918",
	"lat":"34.1646307",
	"long":"-118.3732448",
	"name":"El Tejano Tex Mex",
	"address":"11122 W Magnolia Blvd, North Hollywood, CA 91601",
	"logo_url":"https://s3.amazonaws.com/motherbrain-prod/vlogo_1525811024213",
	"day":"Mondays",
	"time":"2021-10-26T02:00:00+0000"
},{
	"url":"https://www.geekswhodrink.com/venues/1223959857",
	"lat":"34.1638342",
	"long":"-118.3736328",
	"name":"Player One Arcade Bar",
	"address":"5126 Lankershim Blvd, North Hollywood, CA 91601",
	"logo_url":"https://s3.amazonaws.com/motherbrain-prod/vlogo_1568846166074",
	"day":"Tuesdays",
	"time":"2021-05-26T02:00:00+0000"
},{
	"url":"https://www.geekswhodrink.com/venues/598329412",
	"lat":"34.0155882",
	"long":"-118.413182",
	"name":"The Bigfoot Lodge (West)",
	"address":"10939 Venice Blvd, Los Angeles, CA 90034",
	"logo_url":"https://s3.amazonaws.com/motherbrain-prod/vlogo_1507611807408",
	"day":"Tuesdays",
	"time":"2021-09-29T03:00:00+0000"
},{
	"url":"https://www.geekswhodrink.com/venues/844463662",
	"lat":"34.1574644",
	"long":"-118.4040102",
	"name":"Thirsty Merchant",
	"address":"12430 Riverside Dr, North Hollywood, CA 91607",
	"logo_url":"https://s3.amazonaws.com/motherbrain-prod/vlogo_1667611119768",
	"day":"Tuesdays",
	"time":"2021-08-18T02:00:00+0000"
},{
	"url":"https://www.geekswhodrink.com/venues/443630355",
	"lat":"34.6144131",
	"long":"-118.1396795",
	"name":"Transplants Brewing Company",
	"address":"40242 La Quinta Ln #101, Palmdale, CA 93551",
	"logo_url":"https://s3.amazonaws.com/motherbrain-prod/vlogo_1504893585745",
	"day":"Wednesdays",
	"time":"2021-06-17T01:00:00+0000"
},{
	"url":"https://www.geekswhodrink.com/venues/2335149129",
	"lat":"32.9330029",
	"long":"-117.2527168",
	"name":"THE GOAT",
	"address":"2334 Carmel Valley Rd Suite A, Del Mar, CA 92014",
	"logo_url":"https://s3.amazonaws.com/motherbrain-prod/vlogo_1672782995112",
	"day":"Tuesdays",
	"time":"2023-02-08T02:00:00+0000"
},{
	"url":"https://www.geekswhodrink.com/venues/2214136031",
	"lat":"34.0153575",
	"long":"-118.4765993",
	"name":"Nostalgia Bar and Lounge",
	"address":"1326 Pico Blvd, Santa Monica, CA 90405",
	"logo_url":"https://s3.amazonaws.com/motherbrain-prod/vlogo_1662139895251",
	"day":"Wednesdays",
	"time":"2022-10-06T01:00:00+0000"
},{
	"url":"https://www.geekswhodrink.com/venues/1903262705",
	"lat":"32.825627",
	"long":"-117.16084",
	"name":"Ataraxia Aleworks",
	"address":"7292 Opportunity Road Suite c, San Diego, CA 92111",
	"logo_url":"https://s3.amazonaws.com/motherbrain-prod/vlogo_1635364452086",
	"day":"Tuesdays",
	"time":"2021-11-24T02:00:00+0000"
},{
	"url":"https://www.geekswhodrink.com/venues/1140034163",
	"lat":"32.7611663",
	"long":"-117.1460068",
	"name":"Kairoa Brewing Company",
	"address":"4601 Park Blvd, San Diego, CA 92116",
	"logo_url":"https://s3.amazonaws.com/motherbrain-prod/vlogo_1559253060048",
	"day":"Wednesdays",
	"time":"2021-06-03T00:30:00+0000"
},{
	"url":"https://www.geekswhodrink.com/venues/348732563",
	"lat":"32.7523949",
	"long":"-117.1299178",
	"name":"Rip Current Brewing North Park",
	"address":"4101 30th Street, San Diego, CA 92104",
	"logo_url":"https://s3.amazonaws.com/motherbrain-prod/vlogo_1505243203580",
	"day":"Tuesdays",
	"time":"2021-05-19T00:30:00+0000"
},{
	"url":"https://www.geekswhodrink.com/venues/706230442",
	"lat":"35.1390918",
	"long":"-118.4582731",
	"name":"Local Craft Beer",
	"address":"365 Enterprise Way Ste G, Tehachapi, CA 93561",
	"logo_url":"https://s3.amazonaws.com/motherbrain-prod/vlogo_1508876454647",
	"day":"Wednesdays",
	"time":"2021-04-29T00:30:00+0000"
},{
	"url":"https://www.geekswhodrink.com/venues/862843969",
	"lat":"34.5671616",
	"long":"-114.3590786",
	"name":"Hangar 24 Craft Brewery Lake Havasu",
	"address":"5600 AZ-95 #6, Lake Havasu City, AZ 86404",
	"logo_url":"https://s3.amazonaws.com/motherbrain-prod/vlogo_1635784794849",
	"day":"Thursdays",
	"time":"2021-11-12T01:00:00+0000"
},{
	"url":"https://www.geekswhodrink.com/venues/2351228994",
	"lat":"36.1143768",
	"long":"-115.1615763",
	"name":"Pub 365 (Starts on March 1!)",
	"address":"255 EAST FLAMINGO ROAD, Las Vegas, NV 89104",
	"logo_url":"https://s3.amazonaws.com/motherbrain-prod/vlogo_1674225447569",
	"day":"Wednesdays",
	"time":"2023-03-02T02:30:00+0000"
},{
	"url":"https://www.geekswhodrink.com/venues/159489585",
	"lat":"36.2113864",
	"long":"-115.2500108",
	"name":"Aces and Ales Tenaya",
	"address":"2801 North Tenaya Way, Las Vegas, NV 89128",
	"logo_url":"https://s3.amazonaws.com/motherbrain-prod/vlogo_1660779268209",
	"day":"Tuesdays",
	"time":"2021-03-24T01:00:00+0000"
},{
	"url":"https://www.geekswhodrink.com/venues/250222287",
	"lat":"36.242387",
	"long":"-115.2358276",
	"name":"Big Dog&#039;s Draft House",
	"address":"4543 N. Rancho Drive, Las Vegas, NV 89108",
	"logo_url":"https://s3.amazonaws.com/motherbrain-prod/vlogo_1648141676236",
	"day":"Wednesdays",
	"time":"2021-06-24T02:00:00+0000"
},{
	"url":"https://www.geekswhodrink.com/venues/815297144",
	"lat":"35.9783156",
	"long":"-114.836691",
	"name":"Boulder Dam Brewing Company",
	"address":"453 Nevada Hwy, Boulder City, NV 89005",
	"logo_url":"https://s3.amazonaws.com/motherbrain-prod/vlogo_1522710141109",
	"day":"Thursdays",
	"time":"2022-01-14T02:00:00+0000"
},{
	"url":"https://www.geekswhodrink.com/venues/2386133871",
	"lat":"36.3299489",
	"long":"-119.2869605",
	"name":"BarrelHouse Brewing - Visalia (Starts on April 18!)",
	"address":"521 E Main St, Visalia, CA 93292",
	"logo_url":"https://s3.amazonaws.com/motherbrain-prod/vlogo_1677076822284",
	"day":"Tuesdays",
	"time":"2023-04-19T01:00:00+0000"
},{
	"url":"https://www.geekswhodrink.com/venues/973247018",
	"lat":"35.2463028",
	"long":"-120.6707667",
	"name":"Oak and Otter Brewing Co.",
	"address":"181 Tank Farm Rd. Suite 110, San Luis Obispo, CA 93401",
	"logo_url":"https://s3.amazonaws.com/motherbrain-prod/vlogo_1578686117850",
	"day":"Wednesdays",
	"time":"2021-07-15T00:30:00+0000"
},{
	"url":"https://www.geekswhodrink.com/venues/2361339088",
	"lat":"35.2781436",
	"long":"-120.6652406",
	"name":"BA Start Arcade &amp; Taproom (Starts on March 21!)",
	"address":"647 Higuera, San Luis Obispo, CA 93401",
	"logo_url":"https://s3.amazonaws.com/motherbrain-prod/vlogo_1675103820356",
	"day":"Tuesdays",
	"time":"2023-03-22T02:00:00+0000"
},{
	"url":"https://www.geekswhodrink.com/venues/335912201",
	"lat":"36.730957",
	"long":"-119.7884403",
	"name":"Tioga-Sequoia Brewing Company",
	"address":"745 Fulton St, Fresno, CA 93721",
	"logo_url":"https://s3.amazonaws.com/motherbrain-prod/vlogo_1649773911873",
	"day":"Wednesdays",
	"time":"2021-05-27T01:00:00+0000"
},{
	"url":"https://www.geekswhodrink.com/venues/2386133765",
	"lat":"36.8638688",
	"long":"-119.7715563",
	"name":"BarrelHouse Brewing - Fresno (Starts on April 5!)",
	"address":"145 E Paseo Del Centro, Fresno, CA 93720",
	"logo_url":"https://s3.amazonaws.com/motherbrain-prod/vlogo_1677076819651",
	"day":"Wednesdays",
	"time":"2023-04-06T01:00:00+0000"
},{
	"url":"https://www.geekswhodrink.com/venues/2263440777",
	"lat":"33.5669686",
	"long":"-112.160993",
	"name":"Easy Tiger Bar",
	"address":"4725 W Olive Ave, Glendale, AZ 85302",
	"logo_url":"https://s3.amazonaws.com/motherbrain-prod/vlogo_1666626263297",
	"day":"Tuesdays",
	"time":"2022-11-30T02:30:00+0000"
},{
	"url":"https://www.geekswhodrink.com/venues/1331046802",
	"lat":"33.6831949",
	"long":"-112.083335",
	"name":"Simple Machine Brewing",
	"address":"701 W Deer Valley Dr Ste 1, Phoenix, AZ 85027",
	"logo_url":"https://s3.amazonaws.com/motherbrain-prod/vlogo_1580424860798",
	"day":"Wednesdays",
	"time":"2021-01-14T01:30:00+0000"
},{
	"url":"https://www.geekswhodrink.com/venues/1871870600",
	"lat":"33.4996617",
	"long":"-112.0834389",
	"name":"Thunderbird Lounge",
	"address":"710 W Montecito Ave, Phoenix, AZ 85013",
	"logo_url":"https://s3.amazonaws.com/motherbrain-prod/vlogo_1653416461932",
	"day":"Tuesdays",
	"time":"2021-10-27T02:00:00+0000"
},{
	"url":"https://www.geekswhodrink.com/venues/2222677230",
	"lat":"33.5182983",
	"long":"-112.0636009",
	"name":"Verdura",
	"address":"5555 N 7th St, STE 108, Phoenix, AZ 85014",
	"logo_url":"https://s3.amazonaws.com/motherbrain-prod/vlogo_1663001053296",
	"day":"Wednesdays",
	"time":"2022-10-20T01:00:00+0000"
},{
	"url":"https://www.geekswhodrink.com/venues/860696334",
	"lat":"33.625333",
	"long":"-111.9239698",
	"name":"Sorso Wine Room",
	"address":"15323 N Scottsdale Rd #150, Scottsdale, AZ 85254",
	"logo_url":"https://s3.amazonaws.com/motherbrain-prod/vlogo_1528221331931",
	"day":"Wednesdays",
	"time":"2021-09-02T01:00:00+0000"
},{
	"url":"https://www.geekswhodrink.com/venues/1940828405",
	"lat":"36.8479583",
	"long":"-121.4024753",
	"name":"Running Rooster",
	"address":"800 San Benito St, Ste. B, Hollister, CA 95023",
	"logo_url":"https://s3.amazonaws.com/motherbrain-prod/vlogo_1638824156690",
	"day":"Wednesdays",
	"time":"2022-01-13T01:30:00+0000"
},{
	"url":"https://www.geekswhodrink.com/venues/2332448098",
	"lat":"33.4216848",
	"long":"-111.9243478",
	"name":"Devil&#039;s Advocate Sports Grill",
	"address":"955 E University Drive, Tempe, AZ 85281",
	"logo_url":"https://s3.amazonaws.com/motherbrain-prod/vlogo_1672437242602",
	"day":"Wednesdays",
	"time":"2023-02-02T02:00:00+0000"
},{
	"url":"https://www.geekswhodrink.com/venues/1335009503",
	"lat":"33.4155087",
	"long":"-111.8321063",
	"name":"12 West Brewing (Mesa)",
	"address":"12 W Main St, Mesa, AZ 85201",
	"logo_url":"https://s3.amazonaws.com/motherbrain-prod/vlogo_1619211812623",
	"day":"Tuesdays",
	"time":"2021-05-12T01:00:00+0000"
},{
	"url":"https://www.geekswhodrink.com/venues/2330626281",
	"lat":"33.3056066",
	"long":"-111.8434555",
	"name":"Look Cinemas - Chandler",
	"address":"1 W Chandler Blvd, Chandler, AZ 85225",
	"logo_url":"https://s3.amazonaws.com/motherbrain-prod/vlogo_1672769901775",
	"day":"Wednesdays",
	"time":"2023-01-19T02:30:00+0000"
},{
	"url":"https://www.geekswhodrink.com/venues/2380738170",
	"lat":"33.3020625",
	"long":"-111.8417484",
	"name":"Cheba Hut Toasted Subs",
	"address":"11 W Boston St, Chandler, AZ 85225",
	"logo_url":"https://s3.amazonaws.com/motherbrain-prod/vlogo_1676581796909",
	"day":"Tuesdays",
	"time":"2023-04-05T01:00:00+0000"
},{
	"url":"https://www.geekswhodrink.com/venues/2126420481",
	"lat":"33.3345119",
	"long":"-111.8336627",
	"name":"SanTan Gardens",
	"address":"495 E. Warner Rd., Chandler, AZ 85225",
	"logo_url":"https://s3.amazonaws.com/motherbrain-prod/vlogo_1655921648340",
	"day":"Tuesdays",
	"time":"2022-07-20T00:30:00+0000"
},{
	"url":"https://www.geekswhodrink.com/venues/2238116860",
	"lat":"33.3218978",
	"long":"-111.7268891",
	"name":"12 West Brewing (Gilbert)",
	"address":"3000 E Ray Rd, Barnone, Building 6, Suite 110, Gilbert, AZ 85296",
	"logo_url":"https://s3.amazonaws.com/motherbrain-prod/vlogo_1664301401641",
	"day":"Mondays",
	"time":"2022-11-08T01:30:00+0000"
},{
	"url":"https://www.geekswhodrink.com/venues/2234262285",
	"lat":"36.9735735",
	"long":"-122.0255413",
	"name":"Rosie Mccann&#039;s Irish Pub &amp; Restaurant",
	"address":"1220 Pacific Ave, Santa Cruz, CA 95060",
	"logo_url":"https://s3.amazonaws.com/motherbrain-prod/vlogo_1663897775669",
	"day":"Tuesdays",
	"time":"2022-10-26T02:00:00+0000"
},{
	"url":"https://www.geekswhodrink.com/venues/1969930083",
	"lat":"37.2253675",
	"long":"-121.9824964",
	"name":"Loma Brewing Company",
	"address":"130 N. Santa Cruz Ave. Suite G, Los Gatos, CA 95030",
	"logo_url":"https://s3.amazonaws.com/motherbrain-prod/vlogo_1641832822471",
	"day":"Tuesdays",
	"time":"2022-02-09T02:00:00+0000"
},{
	"url":"https://www.geekswhodrink.com/venues/2126690749",
	"lat":"37.3227219",
	"long":"-121.9476611",
	"name":"Chika",
	"address":"300 Santana Row STE 110, San Jose, CA 95128",
	"logo_url":"https://s3.amazonaws.com/motherbrain-prod/vlogo_1655157462805",
	"day":"Wednesdays",
	"time":"2022-07-19T00:00:00+0000"
},{
	"url":"https://www.geekswhodrink.com/venues/2267956391",
	"lat":"37.7046559",
	"long":"-121.8974038",
	"name":"Thirsty Bay Tap &#039;N Pour",
	"address":"5286 Iron Horse Pkwy Suite B, Dublin, CA 94568",
	"logo_url":"https://s3.amazonaws.com/motherbrain-prod/vlogo_1666625100061",
	"day":"Tuesdays",
	"time":"2022-12-07T02:00:00+0000"
},{
	"url":"https://www.geekswhodrink.com/venues/2142589967",
	"lat":"32.3550489",
	"long":"-110.9751826",
	"name":"The Landing",
	"address":"8195 N. Oracle Rd., Tucson, AZ 85704",
	"logo_url":"https://s3.amazonaws.com/motherbrain-prod/vlogo_1656707958090",
	"day":"Tuesdays",
	"time":"2022-08-03T01:00:00+0000"
},{
	"url":"https://www.geekswhodrink.com/venues/348731933",
	"lat":"37.5040917",
	"long":"-122.4855666",
	"name":"Half Moon Bay Brewing Co.",
	"address":"390 Capistrano Rd, Half Moon Bay, CA 94018",
	"logo_url":"https://s3.amazonaws.com/motherbrain-prod/vlogo_1505854840582",
	"day":"Tuesdays",
	"time":"2022-05-25T00:30:00+0000"
},{
	"url":"https://www.geekswhodrink.com/venues/2275604420",
	"lat":"37.9287439",
	"long":"-122.0165063",
	"name":"Mike Hess Brewing Co.",
	"address":"2313 Oak Grove Rd, Walnut Creek, CA 94598",
	"logo_url":"https://s3.amazonaws.com/motherbrain-prod/vlogo_1667835775467",
	"day":"Wednesdays",
	"time":"2022-12-01T01:00:00+0000"
},{
	"url":"https://www.geekswhodrink.com/venues/682128978",
	"lat":"37.9294204",
	"long":"-122.0247023",
	"name":"Calicraft Brewing Company",
	"address":"2700 Mitchell Dr Walnut Creek, CA 94598",
	"logo_url":"https://s3.amazonaws.com/motherbrain-prod/vlogo_1508265863299",
	"day":"Tuesdays",
	"time":"2021-06-23T01:00:00+0000"
},{
	"url":"https://www.geekswhodrink.com/venues/1746286750",
	"lat":"32.2236269",
	"long":"-110.9652399",
	"name":"Dillinger Brewing Co",
	"address":"402 E 9th St, Tucson, AZ 85705",
	"logo_url":"https://s3.amazonaws.com/motherbrain-prod/vlogo_1621280920652",
	"day":"Wednesdays",
	"time":"2021-06-17T01:00:00+0000"
},{
	"url":"https://www.geekswhodrink.com/venues/1160784407",
	"lat":"32.214412",
	"long":"-110.9595118",
	"name":"Barrio Brewing Co.",
	"address":"800 E 16th St. Tucson, AZ 85719",
	"logo_url":"https://s3.amazonaws.com/motherbrain-prod/vlogo_1561583425263",
	"day":"Mondays",
	"time":"2021-06-15T01:00:00+0000"
},{
	"url":"https://www.geekswhodrink.com/venues/1877514734",
	"lat":"37.9766535",
	"long":"-122.0320379",
	"name":"Side Gate Brewery and Beer Garden",
	"address":"1822 Grant St, Concord, CA 94520",
	"logo_url":"https://s3.amazonaws.com/motherbrain-prod/vlogo_1633039374028",
	"day":"Wednesdays",
	"time":"2021-10-28T01:00:00+0000"
},{
	"url":"https://www.geekswhodrink.com/venues/2189036510",
	"lat":"37.6621303",
	"long":"-122.4030787",
	"name":"The Standby",
	"address":"935 Airport Blvd. South San Francisco, CA 94080",
	"logo_url":"https://s3.amazonaws.com/motherbrain-prod/vlogo_1660076462968",
	"day":"Wednesdays",
	"time":"2022-09-15T00:00:00+0000"
},{
	"url":"https://www.geekswhodrink.com/venues/1796551764",
	"lat":"37.796638",
	"long":"-122.272736",
	"name":"Seawolf Public House",
	"address":"350 4th Street Oakland, CA 94607",
	"logo_url":"https://s3.amazonaws.com/motherbrain-prod/vlogo_1625598074756",
	"day":"Wednesdays",
	"time":"2021-07-29T01:00:00+0000"
},{
	"url":"https://www.geekswhodrink.com/venues/1112380857",
	"lat":"32.2365917",
	"long":"-110.8945535",
	"name":"Craft, A Modern Drinkery",
	"address":"4603 E Speedway Blvd Tucson, AZ 85712",
	"logo_url":"https://s3.amazonaws.com/motherbrain-prod/vlogo_1556130198102",
	"day":"Thursdays",
	"time":"2021-07-16T01:00:00+0000"
},{
	"url":"https://www.geekswhodrink.com/venues/1945869493",
	"lat":"37.7966896",
	"long":"-122.2751719",
	"name":"Federation Brewing",
	"address":"420 3rd Street - Unit A Oakland, CA 94607",
	"logo_url":"https://s3.amazonaws.com/motherbrain-prod/vlogo_1639186682132",
	"day":"Thursdays",
	"time":"2022-01-14T02:00:00+0000"
},{
	"url":"https://www.geekswhodrink.com/venues/1214774966",
	"lat":"38.010007",
	"long":"-122.0390849",
	"name":"Epidemic Ales",
	"address":"150 Mason Circle Ste. J Concord, CA 94520",
	"logo_url":"https://s3.amazonaws.com/motherbrain-prod/vlogo_1626892521575",
	"day":"Thursdays",
	"time":"2021-07-09T00:30:00+0000"
},{
	"url":"https://www.geekswhodrink.com/venues/37048590",
	"lat":"32.2502114",
	"long":"-110.8432584",
	"name":"The Canyon&#039;s Crown Restaurant &amp; Pub",
	"address":"6958 E. Tanque Verde Rd. Tucson, AZ 85715",
	"logo_url":"https://s3.amazonaws.com/motherbrain-prod/vlogo_1506413569148",
	"day":"Thursdays",
	"time":"2021-06-18T02:00:00+0000"
},{
	"url":"https://www.geekswhodrink.com/venues/653280588",
	"lat":"37.8734032",
	"long":"-122.2688467",
	"name":"Triple Rock Brewery",
	"address":"1920 Shattuck Ave Berkeley, CA 94704",
	"logo_url":"https://s3.amazonaws.com/motherbrain-prod/vlogo_1661877894299",
	"day":"Wednesdays",
	"time":"2021-08-26T02:00:00+0000"
},{
	"url":"https://www.geekswhodrink.com/venues/710132630",
	"lat":"37.7637642",
	"long":"-122.4012442",
	"name":"Anchor Public Taps",
	"address":"495 De Haro St, San Francisco, CA 94107",
	"logo_url":"https://s3.amazonaws.com/motherbrain-prod/vlogo_1509057628538",
	"day":"Wednesdays",
	"time":"2021-07-08T00:30:00+0000"
},{
	"url":"https://www.geekswhodrink.com/venues/1989122577",
	"lat":"37.7562198",
	"long":"-122.419185",
	"name":"Bear vs Bull @Alamo Drafthouse New Mission",
	"address":"2550 Mission St. San Francisco, CA 94110",
	"logo_url":"https://s3.amazonaws.com/motherbrain-prod/vlogo_1643398692874",
	"day":"Mondays",
	"time":"2022-02-22T03:00:00+0000"
},{
	"url":"https://www.geekswhodrink.com/venues/646449243",
	"lat":"37.8794786",
	"long":"-122.2998386",
	"name":"Gilman Brewing Company",
	"address":"912 Gilman Street Berkeley, CA 94710",
	"logo_url":"https://s3.amazonaws.com/motherbrain-prod/vlogo_1504892742677",
	"day":"Tuesdays",
	"time":"2021-07-07T01:30:00+0000"
},{
	"url":"https://www.geekswhodrink.com/venues/2291350006",
	"lat":"37.8062857",
	"long":"-122.4226849",
	"name":"Square Pie Guys",
	"address":"845 Beach Street San Francisco, CA 94109",
	"logo_url":"https://s3.amazonaws.com/motherbrain-prod/vlogo_1668556805061",
	"day":"Tuesdays",
	"time":"2023-01-11T01:30:00+0000"
},{
	"url":"https://www.geekswhodrink.com/venues/2038214265",
	"lat":"38.5746744",
	"long":"-121.4825276",
	"name":"Golden Road Brewing - Sacramento",
	"address":"1830 L St. Sacramento, CA 95811",
	"logo_url":"https://s3.amazonaws.com/motherbrain-prod/vlogo_1647364365246",
	"day":"Wednesdays",
	"time":"2022-04-14T01:00:00+0000"
},{
	"url":"https://www.geekswhodrink.com/venues/2323845698",
	"lat":"38.5799813",
	"long":"-121.498368",
	"name":"Tipsy Putt - Sacramento",
	"address":"630 K St, #120 Sacramento, CA 95814",
	"logo_url":"https://s3.amazonaws.com/motherbrain-prod/vlogo_1675450376374",
	"day":"Tuesdays",
	"time":"2023-01-04T02:00:00+0000"
},{
	"url":"https://www.geekswhodrink.com/venues/1051262098",
	"lat":"38.1317186",
	"long":"-122.2585649",
	"name":"Napa Smith Brewery",
	"address":"101 Yolano Dr Vallejo, CA 94589",
	"logo_url":"https://s3.amazonaws.com/motherbrain-prod/vlogo_1650045037935",
	"day":"Thursdays",
	"time":"2022-04-15T01:00:00+0000"
},{
	"url":"https://www.geekswhodrink.com/venues/2328711462",
	"lat":"38.2941268",
	"long":"-122.3016718",
	"name":"Napa Valley Distillery",
	"address":"2485 Stockton St, Napa, CA 94559",
	"logo_url":"https://s3.amazonaws.com/motherbrain-prod/vlogo_1672074068302",
	"day":"Thursdays",
	"time":"2023-02-10T02:00:00+0000"
},{
	"url":"https://www.geekswhodrink.com/venues/1310974429",
	"lat":"40.7166699",
	"long":"-111.8942605",
	"name":"Level Crossing Brewing",
	"address":"2496 S W Temple South Salt Lake, UT 84115",
	"logo_url":"https://s3.amazonaws.com/motherbrain-prod/vlogo_1578592568334",
	"day":"Mondays",
	"time":"2021-03-09T01:00:00+0000"
},{
	"url":"https://www.geekswhodrink.com/venues/2129518386",
	"lat":"40.766285",
	"long":"-111.9042147",
	"name":"Dave and Buster&#039;s - Salt Lake City",
	"address":"140 S. Rio Grande St. Salt Lake City, UT 84101",
	"logo_url":"https://s3.amazonaws.com/motherbrain-prod/vlogo_1655487998826",
	"day":"Tuesdays",
	"time":"2022-12-07T02:30:00+0000"
},{
	"url":"https://www.geekswhodrink.com/venues/978309781",
	"lat":"37.2697725",
	"long":"-107.8810186",
	"name":"The Roost",
	"address":"128 E College Drive Durango, CO 81301",
	"logo_url":"https://s3.amazonaws.com/motherbrain-prod/vlogo_1542053293664",
	"day":"Wednesdays",
	"time":"2022-09-01T02:00:00+0000"
},{
	"url":"https://www.geekswhodrink.com/venues/851510294",
	"lat":"35.2121867",
	"long":"-106.6968926",
	"name":"Tractor Brewing Co (Westside)",
	"address":"5720 McMahon Blvd Bldg 5 Ste A Albuquerque, NM 87114",
	"logo_url":"https://s3.amazonaws.com/motherbrain-prod/vlogo_1527101225394",
	"day":"Wednesdays",
	"time":"2021-08-05T01:00:00+0000"
},{
	"url":"https://www.geekswhodrink.com/venues/2394955256",
	"lat":"35.0942043",
	"long":"-106.6768448",
	"name":"El Vado Taproom (Starts on April 4!)",
	"address":"2500 Central Avenue Southwest Albuquerque, NM 87104",
	"logo_url":"https://s3.amazonaws.com/motherbrain-prod/vlogo_1677705105444",
	"day":"Tuesdays",
	"time":"2023-04-05T01:00:00+0000"
},{
	"url":"https://www.geekswhodrink.com/venues/2298654956",
	"lat":"35.0963616",
	"long":"-106.6705151",
	"name":"Downshift Brewing Company",
	"address":"301 Romero St, NW Suite 205 Albuquerque, NM 87104",
	"logo_url":"https://s3.amazonaws.com/motherbrain-prod/vlogo_1669223943073",
	"day":"Thursdays",
	"time":"2022-12-30T02:00:00+0000"
},{
	"url":"https://www.geekswhodrink.com/venues/2323922319",
	"lat":"35.101124",
	"long":"-106.6642076",
	"name":"Ponderosa Brewing Company",
	"address":"1761 Bellamah Ave NW Albuquerque, NM 87104",
	"logo_url":"https://s3.amazonaws.com/motherbrain-prod/vlogo_1671495831376",
	"day":"Wednesdays",
	"time":"2023-01-26T02:00:00+0000"
},{
	"url":"https://www.geekswhodrink.com/venues/2227060975",
	"lat":"35.0851434",
	"long":"-106.6530323",
	"name":"505 Central Food Hall",
	"address":"505 Central Ave NW Albuquerque, NM 87102",
	"logo_url":"https://s3.amazonaws.com/motherbrain-prod/vlogo_1663278584901",
	"day":"Tuesdays",
	"time":"2022-10-19T01:00:00+0000"
},{
	"url":"https://www.geekswhodrink.com/venues/2097112554",
	"lat":"35.1049058",
	"long":"-106.6510058",
	"name":"Bow &amp; Arrow Brewing",
	"address":"608 McKnight Ave. NW Albuquerque, NM 87102",
	"logo_url":"https://s3.amazonaws.com/motherbrain-prod/vlogo_1652475372694",
	"day":"Mondays",
	"time":"2022-06-14T01:00:00+0000"
},{
	"url":"https://www.geekswhodrink.com/venues/125569365",
	"lat":"35.102196",
	"long":"-106.6476898",
	"name":"Tractor Brewing Wells Park",
	"address":"1800 4th St, NW Albuquerque, NM 87102",
	"logo_url":"https://s3.amazonaws.com/motherbrain-prod/vlogo_1626880459769",
	"day":"Sundays",
	"time":"2021-08-02T01:00:00+0000"
},{
	"url":"https://www.geekswhodrink.com/venues/2357011853",
	"lat":"35.1120004",
	"long":"-106.6466954",
	"name":"Sunday Service Motor Company (Starts on March 9!)",
	"address":"2701 4th Street NW Albuquerque, NM 87107",
	"logo_url":"https://s3.amazonaws.com/motherbrain-prod/vlogo_1674686905917",
	"day":"Thursdays",
	"time":"2023-03-10T02:00:00+0000"
},{
	"url":"https://www.geekswhodrink.com/venues/2275292728",
	"lat":"35.0807077",
	"long":"-106.621014",
	"name":"505 Spirits",
	"address":"105 Harvard Dr SE Albuquerque, NM 87106",
	"logo_url":"https://s3.amazonaws.com/motherbrain-prod/vlogo_1667237144318",
	"day":"Thursdays",
	"time":"2022-12-02T02:00:00+0000"
},{
	"url":"https://www.geekswhodrink.com/venues/848065604",
	"lat":"35.1057264",
	"long":"-106.6033436",
	"name":"Santa Fe Brewing Co. (Albuquerque Taproom)",
	"address":"3600 Cutler NE Albuquerque, NM 87110",
	"logo_url":"https://s3.amazonaws.com/motherbrain-prod/vlogo_1526315307279",
	"day":"Wednesdays",
	"time":"2021-08-19T02:00:00+0000"
},{
	"url":"https://www.geekswhodrink.com/venues/1859096354",
	"lat":"35.1841663",
	"long":"-106.5759739",
	"name":"Santa Fe Brewing (Tin Can Alley)",
	"address":"6110 Alameda Blvd NE Suite #1 Albuquerque, NM 87113",
	"logo_url":"https://s3.amazonaws.com/motherbrain-prod/vlogo_1631309096293",
	"day":"Mondays",
	"time":"2021-09-28T01:00:00+0000"
},{
	"url":"https://www.geekswhodrink.com/venues/1300904530",
	"lat":"35.1232941",
	"long":"-106.5513077",
	"name":"Poki Poki Cevicheria (Wyoming Blvd)",
	"address":"3517 Wyoming Blvd NE Albuquerque, NM 87111",
	"logo_url":"https://s3.amazonaws.com/motherbrain-prod/vlogo_1576783628102",
	"day":"Tuesdays",
	"time":"2021-07-28T01:00:00+0000"
},{
	"url":"https://www.geekswhodrink.com/venues/1265000058",
	"lat":"35.1738465",
	"long":"-106.4969974",
	"name":"Boese Brothers Brewpub (NE Heights)",
	"address":"7849 Tramway Blvd NE Suite C Albuquerque, NM 87122",
	"logo_url":"https://s3.amazonaws.com/motherbrain-prod/vlogo_1624217538614",
	"day":"Wednesdays",
	"time":"2021-07-16T01:00:00+0000"
},{
	"url":"https://www.geekswhodrink.com/venues/1190559791",
	"lat":"35.8829201",
	"long":"-106.3001869",
	"name":"Boese Brothers Brewpub (Los Alamos)",
	"address":"145 Central Park Square, #145 Los Alamos, NM 87544",
	"logo_url":"https://s3.amazonaws.com/motherbrain-prod/vlogo_1648660853546",
	"day":"Tuesdays",
	"time":"2022-03-30T02:00:00+0000"
},{
	"url":"https://www.geekswhodrink.com/venues/378556076",
	"lat":"31.8132265",
	"long":"-106.510691",
	"name":"Glass Half Full @Alamo Drafthouse El Paso",
	"address":"250 E. Montecillo Blvd. El Paso, TX 79912",
	"logo_url":"https://s3.amazonaws.com/motherbrain-prod/vlogo_1643400053231",
	"day":"Tuesdays",
	"time":"2021-07-07T01:00:00+0000"
},{
	"url":"https://www.geekswhodrink.com/venues/2014323123",
	"lat":"31.7553736",
	"long":"-106.4924589",
	"name":"Deadbeach Brewery",
	"address":"406 S. Durango El Paso, TX 79901",
	"logo_url":"https://s3.amazonaws.com/motherbrain-prod/vlogo_1645468137241",
	"day":"Sundays",
	"time":"2022-03-13T23:30:00+0000"
},{
	"url":"https://www.geekswhodrink.com/venues/445047794",
	"lat":"31.7617775",
	"long":"-106.4881631",
	"name":"Craft &amp; Social",
	"address":"305 E Franklin Ave. El Paso, TX 79901",
	"logo_url":"https://s3.amazonaws.com/motherbrain-prod/vlogo_1503082456946",
	"day":"Thursdays",
	"time":"2021-04-30T02:00:00+0000"
},{
	"url":"https://www.geekswhodrink.com/venues/760060888",
	"lat":"35.5965609",
	"long":"-106.0515842",
	"name":"Santa Fe Brewing Company",
	"address":"35 Fire Place Santa Fe, NM 87508",
	"logo_url":"https://s3.amazonaws.com/motherbrain-prod/vlogo_1516296063728",
	"day":"Tuesdays",
	"time":"2021-07-21T01:00:00+0000"
},{
	"url":"https://www.geekswhodrink.com/venues/2129518372",
	"lat":"31.78394",
	"long":"-106.4118096",
	"name":"Dave and Buster&#039;s - El Paso",
	"address":"6101 Gateway West, Ste. 2006 El Paso, TX 79925",
	"logo_url":"https://s3.amazonaws.com/motherbrain-prod/vlogo_1655488031711",
	"day":"Tuesdays",
	"time":"2022-07-13T01:30:00+0000"
},{
	"url":"https://www.geekswhodrink.com/venues/779401900",
	"lat":"31.7527073",
	"long":"-106.3173406",
	"name":"Border City Ale House",
	"address":"1506 Lee Trevino, Suite# G El Paso, TX 79936",
	"logo_url":"https://s3.amazonaws.com/motherbrain-prod/vlogo_1518454160470",
	"day":"Wednesdays",
	"time":"2021-04-15T02:00:00+0000"
},{
	"url":"https://www.geekswhodrink.com/venues/2049741263",
	"lat":"35.6790827",
	"long":"-105.9491035",
	"name":"Social Kitchen Bar",
	"address":"725 Cerillos Road Santa Fe, NM 87507",
	"logo_url":"https://s3.amazonaws.com/motherbrain-prod/vlogo_1648244334306",
	"day":"Thursdays",
	"time":"2022-04-29T01:00:00+0000"
},{
	"url":"https://www.geekswhodrink.com/venues/241693706",
	"lat":"35.6822789",
	"long":"-105.9490175",
	"name":"Second Street Brewery (at The Railyard)",
	"address":"1607 Paseo De Peralta #10 Santa Fe, NM 87501",
	"logo_url":"https://s3.amazonaws.com/motherbrain-prod/vlogo_1503594003203",
	"day":"Wednesdays",
	"time":"2021-07-29T02:00:00+0000"
},{
	"url":"https://www.geekswhodrink.com/venues/931569499",
	"lat":"35.6871935",
	"long":"-105.9401998",
	"name":"Desert Dogs Brewery and Cidery",
	"address":"112 W San Francisco St, Suite 307 Santa Fe, NM 87501",
	"logo_url":"https://s3.amazonaws.com/motherbrain-prod/vlogo_1536620195297",
	"day":"Sundays",
	"time":"2021-05-17T01:00:00+0000"
},{
	"url":"https://www.geekswhodrink.com/venues/1050255742",
	"lat":"43.6118143",
	"long":"-116.2031078",
	"name":"Boise Brewing",
	"address":"521 W Broad St, Boise, ID 83702",
	"logo_url":"https://s3.amazonaws.com/motherbrain-prod/vlogo_1549655576571",
	"day":"Wednesdays",
	"time":"2021-09-09T01:00:00+0000"
},{
	"url":"https://www.geekswhodrink.com/venues/2394734186",
	"lat":"36.7088126",
	"long":"-105.4081121",
	"name":"Red River Brewing Company &amp; Distillery (Starts on March 21!)",
	"address":"217 W Main St, Red River, NM 87558",
	"logo_url":"https://s3.amazonaws.com/motherbrain-prod/vlogo_1677698615489",
	"day":"Tuesdays",
	"time":"2023-03-22T01:00:00+0000"
},{
	"url":"https://www.geekswhodrink.com/venues/2256446175",
	"lat":"44.0574675",
	"long":"-123.1001002",
	"name":"Old Nick&#039;s Pub",
	"address":"211 Washington St, Eugene, OR 97401",
	"logo_url":"https://s3.amazonaws.com/motherbrain-prod/vlogo_1665697865718",
	"day":"Tuesdays",
	"time":"2022-10-26T01:00:00+0000"
},{
	"url":"https://www.geekswhodrink.com/venues/2340023002",
	"lat":"44.0556256",
	"long":"-123.1098666",
	"name":"Nelson&#039;s In The Whit",
	"address":"394 Blair Blvd Eugene, OR 97402",
	"logo_url":"https://s3.amazonaws.com/motherbrain-prod/vlogo_1673287344281",
	"day":"Thursdays",
	"time":"2023-02-17T02:00:00+0000"
},{
	"url":"https://www.geekswhodrink.com/venues/37247220",
	"lat":"38.84651",
	"long":"-104.8620848",
	"name":"Thunder &amp; Buttons II",
	"address":"2415 W. Colorado Ave Colorado Springs, CO 80904",
	"logo_url":"https://s3.amazonaws.com/motherbrain-prod/vlogo_1503679597470",
	"day":"Tuesdays",
	"time":"2021-06-23T01:30:00+0000"
},{
	"url":"https://www.geekswhodrink.com/venues/294813703",
	"lat":"38.8472939",
	"long":"-104.8623047",
	"name":"Mother Muff&#039;s",
	"address":"2432 W Colorado Ave Colorado Springs, CO 80904",
	"logo_url":"https://s3.amazonaws.com/motherbrain-prod/vlogo_1503076528432",
	"day":"Wednesdays",
	"time":"2020-10-22T02:00:00+0000"
},{
	"url":"https://www.geekswhodrink.com/venues/595861664",
	"lat":"38.8472939",
	"long":"-104.8623047",
	"name":"Mother Muff&#039;s (Sunday)",
	"address":"2432 W Colorado Ave Colorado Springs, CO 80904",
	"logo_url":"https://s3.amazonaws.com/motherbrain-prod/vlogo_1501709111631",
	"day":"Sundays",
	"time":"2021-07-19T01:00:00+0000"
},{
	"url":"https://www.geekswhodrink.com/venues/2011506584",
	"lat":"38.7899779",
	"long":"-104.8233608",
	"name":"Hatch Cover",
	"address":"252 E Cheyenne Mountain Blvd Colorado Springs, CO 80906",
	"logo_url":"https://s3.amazonaws.com/motherbrain-prod/vlogo_1645143760199",
	"day":"Tuesdays",
	"time":"2022-03-11T02:00:00+0000"
},{
	"url":"https://www.geekswhodrink.com/venues/2106541434",
	"lat":"38.8284557",
	"long":"-104.8235282",
	"name":"The Block Bar &amp; Grill",
	"address":"333 S. Tejon St. Colorado Springs, CO 80903",
	"logo_url":"https://s3.amazonaws.com/motherbrain-prod/vlogo_1653349226139",
	"day":"Thursdays",
	"time":"2022-06-24T01:30:00+0000"
},{
	"url":"https://www.geekswhodrink.com/venues/34290628",
	"lat":"38.832959",
	"long":"-104.823043",
	"name":"Jack Quinn&#039;s Irish Alehouse &amp; Pub",
	"address":"21 S. Tejon St. Colorado Springs, CO 80903",
	"logo_url":"https://s3.amazonaws.com/motherbrain-prod/vlogo_1504555128786",
	"day":"Mondays",
	"time":"2021-05-04T02:00:00+0000"
},{
	"url":"https://www.geekswhodrink.com/venues/37247303",
	"lat":"38.8392218",
	"long":"-104.8235869",
	"name":"Tony&#039;s",
	"address":"326 North Tejon Street Colorado Springs, CO 80903",
	"logo_url":"https://s3.amazonaws.com/motherbrain-prod/vlogo_1503679585970",
	"day":"Tuesdays",
	"time":"2020-10-21T02:00:00+0000"
},{
	"url":"https://www.geekswhodrink.com/venues/2232576073",
	"lat":"38.8335303",
	"long":"-104.819277",
	"name":"The Well",
	"address":"315 E Pikes Peak Ave Colorado Springs, CO 80903",
	"logo_url":"https://s3.amazonaws.com/motherbrain-prod/vlogo_1663797555673",
	"day":"Wednesdays",
	"time":"2022-10-27T01:00:00+0000"
},{
	"url":"https://www.geekswhodrink.com/venues/2373216207",
	"lat":"38.9026605",
	"long":"-104.8517895",
	"name":"Upper90 Tavern @ Soccerhaus (Starts on March 20!)",
	"address":"4845 List Dr Colorado Springs, CO 80919",
	"logo_url":"https://s3.amazonaws.com/motherbrain-prod/vlogo_1676412257498",
	"day":"Mondays",
	"time":"2023-03-21T01:00:00+0000"
},{
	"url":"https://www.geekswhodrink.com/venues/2332541626",
	"lat":"39.6993571",
	"long":"-105.3319424",
	"name":"El Rancho (Starts on March 9!)",
	"address":"29260 US-40 Evergreen, CO 80439",
	"logo_url":"https://s3.amazonaws.com/motherbrain-prod/vlogo_1677088296561",
	"day":"Thursdays",
	"time":"2023-03-10T02:00:00+0000"
},{
	"url":"https://www.geekswhodrink.com/venues/1869453650",
	"lat":"38.8771567",
	"long":"-104.8201541",
	"name":"The Public House The Alexander",
	"address":"3104 N. Nevada Ave Colorado Springs, CO 80907",
	"logo_url":"https://s3.amazonaws.com/motherbrain-prod/vlogo_1632331001541",
	"day":"Thursdays",
	"time":"2021-10-15T01:00:00+0000"
},{
	"url":"https://www.geekswhodrink.com/venues/185060564",
	"lat":"38.9275223",
	"long":"-104.8302922",
	"name":"Cleats Bar &amp; Grill",
	"address":"6624 Delmonico Dr Colorado Springs, CO 80919",
	"logo_url":"https://s3.amazonaws.com/motherbrain-prod/vlogo_1502425192096",
	"day":"Tuesdays",
	"time":"2021-06-30T01:00:00+0000"
},{
	"url":"https://www.geekswhodrink.com/venues/454488799",
	"lat":"38.8796603",
	"long":"-104.7558463",
	"name":"Cogstone Brewing Company",
	"address":"3858 Village Seven Rd Colorado Springs, CO 80917",
	"logo_url":"https://s3.amazonaws.com/motherbrain-prod/vlogo_1499961237294",
	"day":"Wednesdays",
	"time":"2021-05-20T01:00:00+0000"
},{
	"url":"https://www.geekswhodrink.com/venues/283834918",
	"lat":"38.8955368",
	"long":"-104.7150483",
	"name":"The Control Room",
	"address":"6120 Barnes Road Colorado Springs, CO 80922",
	"logo_url":"https://s3.amazonaws.com/motherbrain-prod/vlogo_1629843496251",
	"day":"Wednesdays",
	"time":"2021-09-09T01:30:00+0000"
},{
	"url":"https://www.geekswhodrink.com/venues/2380955978",
	"lat":"39.6245717",
	"long":"-105.0889318",
	"name":"Pier 8 Cajun Seafood &amp; Bar (Starts on March 16!)",
	"address":"5066 S Wadsworth Blvd Littleton, CO 80123",
	"logo_url":"https://s3.amazonaws.com/motherbrain-prod/vlogo_1676592692562",
	"day":"Thursdays",
	"time":"2023-03-17T01:00:00+0000"
},{
	"url":"https://www.geekswhodrink.com/venues/660553719",
	"lat":"39.6578219",
	"long":"-105.0834708",
	"name":"LandLocked Ales",
	"address":"3225 S Wadsworth Blvd Lakewood, CO 80227",
	"logo_url":"https://s3.amazonaws.com/motherbrain-prod/vlogo_1507134801040",
	"day":"Wednesdays",
	"time":"2021-06-03T01:00:00+0000"
},{
	"url":"https://www.geekswhodrink.com/venues/902269351",
	"lat":"39.5828082",
	"long":"-105.0254449",
	"name":"Glass Half Full @Alamo Drafthouse Littleton (Tuesday)",
	"address":"7301 S Santa Fe Dr, Unit 850 Littleton, CO 80120",
	"logo_url":"https://s3.amazonaws.com/motherbrain-prod/vlogo_1643399595977",
	"day":"Tuesdays",
	"time":"2022-02-16T02:00:00+0000"
},{
	"url":"https://www.geekswhodrink.com/venues/80526652",
	"lat":"39.5844826",
	"long":"-105.0253232",
	"name":"Glass Half Full @Alamo Drafthouse Littleton (Wednesday)",
	"address":"7301 S Santa Fe Drive Littleton, CO 80120",
	"logo_url":"https://s3.amazonaws.com/motherbrain-prod/vlogo_1647455222456",
	"day":"Wednesdays",
	"time":"2022-03-31T01:00:00+0000"
},{
	"url":"https://www.geekswhodrink.com/venues/1784777529",
	"lat":"39.8148042",
	"long":"-105.1641615",
	"name":"LUKI Brewery",
	"address":"14715 W 64th Ave Units A&amp;B Arvada, CO 80004",
	"logo_url":"https://s3.amazonaws.com/motherbrain-prod/vlogo_1624467488191",
	"day":"Tuesdays",
	"time":"2021-07-28T01:00:00+0000"
},{
	"url":"https://www.geekswhodrink.com/venues/1002923621",
	"lat":"39.375444",
	"long":"-104.8708703",
	"name":"BURLY Brewing Company",
	"address":"680 Atchison Way, Suite 800 Castle Rock, CO 80109",
	"logo_url":"https://s3.amazonaws.com/motherbrain-prod/vlogo_1544554528674",
	"day":"Tuesdays",
	"time":"2021-01-13T02:00:00+0000"
},{
	"url":"https://www.geekswhodrink.com/venues/2335106504",
	"lat":"39.3759687",
	"long":"-104.8617545",
	"name":"The Hideaway Bar and Grill",
	"address":"600 Jerry St, Castle Rock, CO 80104",
	"logo_url":"https://s3.amazonaws.com/motherbrain-prod/vlogo_1672781070730",
	"day":"Mondays",
	"time":"2023-02-28T02:00:00+0000"
},{
	"url":"https://www.geekswhodrink.com/venues/695420763",
	"lat":"39.7867767",
	"long":"-105.1087839",
	"name":"Discovery Tap House",
	"address":"4990 Kipling St, Suite 7 Wheat Ridge, CO 80033",
	"logo_url":"https://s3.amazonaws.com/motherbrain-prod/vlogo_1508952117883",
	"day":"Thursdays",
	"time":"2020-11-06T02:00:00+0000"
},{
	"url":"https://www.geekswhodrink.com/venues/358160661",
	"lat":"40.0149297",
	"long":"-105.2641215",
	"name":"Backcountry Pizza and Taphouse",
	"address":"2319 Arapahoe Ave Boulder, CO 80302",
	"logo_url":"https://s3.amazonaws.com/motherbrain-prod/vlogo_1506371036038",
	"day":"Wednesdays",
	"time":"2021-03-11T02:00:00+0000"
},{
	"url":"https://www.geekswhodrink.com/venues/681197046",
	"lat":"39.5655128",
	"long":"-104.9566716",
	"name":"Max Taps Co.",
	"address":"2680 East County Line Rd Suite A Highlands Ranch, CO 80129",
	"logo_url":"https://s3.amazonaws.com/motherbrain-prod/vlogo_1507742065790",
	"day":"Tuesdays",
	"time":"2020-11-11T02:00:00+0000"
},{
	"url":"https://www.geekswhodrink.com/venues/36244923",
	"lat":"40.0207662",
	"long":"-105.2510729",
	"name":"Twisted Pine Brewing Company",
	"address":"3201 Walnut Street Boulder, CO 80301",
	"logo_url":"https://s3.amazonaws.com/motherbrain-prod/vlogo_1506623058001",
	"day":"Wednesdays",
	"time":"2021-05-20T00:00:00+0000"
},{
	"url":"https://www.geekswhodrink.com/venues/2202216305",
	"lat":"39.654104",
	"long":"-104.9879455",
	"name":"Brewability",
	"address":"3445 South Broadway Englewood, CO 80113",
	"logo_url":"https://s3.amazonaws.com/motherbrain-prod/vlogo_1661188114796",
	"day":"Tuesdays",
	"time":"2022-10-05T01:00:00+0000"
},{
	"url":"https://www.geekswhodrink.com/venues/2217408689",
	"lat":"39.6578963",
	"long":"-104.9884932",
	"name":"Sunroom Brewing",
	"address":"3242 S Acoma St, Englewood, CO 80110",
	"logo_url":"https://s3.amazonaws.com/motherbrain-prod/vlogo_1662495765448",
	"day":"Tuesdays",
	"time":"2022-10-21T01:00:00+0000"
},{
	"url":"https://www.geekswhodrink.com/venues/596022697",
	"lat":"39.7408103",
	"long":"-105.0425249",
	"name":"BarFly @Alamo Drafthouse Sloans Lake",
	"address":"4255 W. Colfax Ave. Denver, CO 80204",
	"logo_url":"https://s3.amazonaws.com/motherbrain-prod/vlogo_1643399722976",
	"day":"Mondays",
	"time":"2022-02-08T02:00:00+0000"
},{
	"url":"https://www.geekswhodrink.com/venues/1919685563",
	"lat":"39.7995416",
	"long":"-105.0799677",
	"name":"The Grandview Tavern and Grill",
	"address":"7427 Grandview Avenue Arvada, CO 80002",
	"logo_url":"https://s3.amazonaws.com/motherbrain-prod/vlogo_1636744699747",
	"day":"Tuesdays",
	"time":"2021-12-08T01:30:00+0000"
},{
	"url":"https://www.geekswhodrink.com/venues/743912788",
	"lat":"39.8015087",
	"long":"-105.080965",
	"name":"Denver Beer Co (Olde Town Arvada)",
	"address":"5768 Olde Wadsworth Blvd Arvada, CO 80002",
	"logo_url":"https://s3.amazonaws.com/motherbrain-prod/vlogo_1626879561930",
	"day":"Thursdays",
	"time":"2021-07-16T02:00:00+0000"
},{
	"url":"https://www.geekswhodrink.com/venues/1761976413",
	"lat":"39.6768189",
	"long":"-104.996892",
	"name":"The Table Public House",
	"address":"2190 S. Platte River Dr. Denver, CO 80223",
	"logo_url":"https://s3.amazonaws.com/motherbrain-prod/vlogo_1622589342349",
	"day":"Tuesdays",
	"time":"2021-06-23T01:00:00+0000"
},{
	"url":"https://www.geekswhodrink.com/venues/2237197043",
	"lat":"39.7438344",
	"long":"-105.0396686",
	"name":"The Patio Sloans",
	"address":"4032 W 17TH AVE Denver, CO 80204",
	"logo_url":"https://s3.amazonaws.com/motherbrain-prod/vlogo_1664217577236",
	"day":"Thursdays",
	"time":"2022-10-28T01:00:00+0000"
},{
	"url":"https://www.geekswhodrink.com/venues/2059247850",
	"lat":"39.75868",
	"long":"-105.0450724",
	"name":"Greg&#039;s Kitchen &amp; Taphouse",
	"address":"4433 W 29th Ave Suite 102 Denver, CO 80212",
	"logo_url":"https://s3.amazonaws.com/motherbrain-prod/vlogo_1649097064709",
	"day":"Tuesdays",
	"time":"2022-05-04T01:30:00+0000"
},{
	"url":"https://www.geekswhodrink.com/venues/2202374822",
	"lat":"40.0201565",
	"long":"-105.2183531",
	"name":"Upslope Brewing Co.",
	"address":"1898 S. Flatiron Court Boulder, CO 80301",
	"logo_url":"https://s3.amazonaws.com/motherbrain-prod/vlogo_1662486081787",
	"day":"Tuesdays",
	"time":"2022-09-28T00:00:00+0000"
},{
	"url":"https://www.geekswhodrink.com/venues/2241034417",
	"lat":"40.0217412",
	"long":"-105.2194041",
	"name":"Wild Provisions Beer Project",
	"address":"2209 Central Ave Boulder, CO 80304",
	"logo_url":"https://s3.amazonaws.com/motherbrain-prod/vlogo_1664571483478",
	"day":"Thursdays",
	"time":"2022-11-04T00:30:00+0000"
},{
	"url":"https://www.geekswhodrink.com/venues/2335079334",
	"lat":"39.9301041",
	"long":"-105.149424",
	"name":"Pats-Tap",
	"address":"1611 Coalton rd Superior, CO 80020",
	"logo_url":"https://s3.amazonaws.com/motherbrain-prod/vlogo_1672779851843",
	"day":"Wednesdays",
	"time":"2023-02-09T02:00:00+0000"
},{
	"url":"https://www.geekswhodrink.com/venues/943723849",
	"lat":"39.7631566",
	"long":"-105.0347283",
	"name":"Oasis Brewing Co",
	"address":"3257 Lowell Blvd Denver, CO 80211",
	"logo_url":"https://s3.amazonaws.com/motherbrain-prod/vlogo_1537979877932",
	"day":"Thursdays",
	"time":"2021-02-05T02:00:00+0000"
},{
	"url":"https://www.geekswhodrink.com/venues/2202315601",
	"lat":"39.5671966",
	"long":"-104.9056471",
	"name":"Denver Biscuit Co.",
	"address":"8271 S Quebec St, Centennial, CO 80112",
	"logo_url":"https://s3.amazonaws.com/motherbrain-prod/vlogo_1661191456725",
	"day":"Thursdays",
	"time":"2022-09-23T01:00:00+0000"
},{
	"url":"https://www.geekswhodrink.com/venues/2374325531",
	"lat":"39.7137398",
	"long":"-104.9877857",
	"name":"Atomic Cowboy South Broadway (Starts on March 13!)",
	"address":"141 S Broadway Denver, CO 80209",
	"logo_url":"https://s3.amazonaws.com/motherbrain-prod/vlogo_1676063923617",
	"day":"Mondays",
	"time":"2023-03-14T01:30:00+0000"
},{
	"url":"https://www.geekswhodrink.com/venues/60846919",
	"lat":"39.7155585",
	"long":"-104.9872019",
	"name":"The Irish Rover",
	"address":"54 S Broadway Denver, CO 80209",
	"logo_url":"https://s3.amazonaws.com/motherbrain-prod/vlogo_1509634552796",
	"day":"Wednesdays",
	"time":"2021-06-10T02:00:00+0000"
},{
	"url":"https://www.geekswhodrink.com/venues/715188153",
	"lat":"39.7586429",
	"long":"-105.0153123",
	"name":"Zuni Street Brewing Co",
	"address":"2355 W 29th Ave. Denver, CO 80211",
	"logo_url":"https://s3.amazonaws.com/motherbrain-prod/vlogo_1509729575109",
	"day":"Tuesdays",
	"time":"2021-06-16T01:00:00+0000"
},{
	"url":"https://www.geekswhodrink.com/venues/2193698342",
	"lat":"39.7109648",
	"long":"-104.982377",
	"name":"The Molecule Effect",
	"address":"300 S. Logan Street Denver, CO 80209",
	"logo_url":"https://s3.amazonaws.com/motherbrain-prod/vlogo_1660348435087",
	"day":"Thursdays",
	"time":"2022-09-23T01:00:00+0000"
},{
	"url":"https://www.geekswhodrink.com/venues/2062669675",
	"lat":"39.7592302",
	"long":"-105.0109062",
	"name":"Post Chicken and Beer - Lohi",
	"address":"1575 Boulder St, Denver, CO 80211",
	"logo_url":"https://s3.amazonaws.com/motherbrain-prod/vlogo_1649692412235",
	"day":"Thursdays",
	"time":"2022-04-28T01:30:00+0000"
},{
	"url":"https://www.geekswhodrink.com/venues/1951945002",
	"lat":"39.7580389",
	"long":"-105.0075509",
	"name":"Cerveceria Colorado",
	"address":"1635 Platte Street Denver, CO 80202",
	"logo_url":"https://s3.amazonaws.com/motherbrain-prod/vlogo_1639757470333",
	"day":"Wednesdays",
	"time":"2022-01-13T02:00:00+0000"
},{
	"url":"https://www.geekswhodrink.com/venues/2306094159",
	"lat":"39.7672008",
	"long":"-105.0110287",
	"name":"Chicken Rebel",
	"address":"3618 Tejon St, Denver, CO 80211",
	"logo_url":"https://s3.amazonaws.com/motherbrain-prod/vlogo_1669914986714",
	"day":"Sundays",
	"time":"2023-01-09T01:00:00+0000"
},{
	"url":"https://www.geekswhodrink.com/venues/813483534",
	"lat":"39.7117544",
	"long":"-104.9728669",
	"name":"The Sportsbook Bar and Grill (Wash Park)",
	"address":"266B S Downing Street Denver, CO 80209",
	"logo_url":"https://s3.amazonaws.com/motherbrain-prod/vlogo_1522711787218",
	"day":"Wednesdays",
	"time":"2020-10-22T01:00:00+0000"
},{
	"url":"https://www.geekswhodrink.com/venues/1898708668",
	"lat":"39.7531593",
	"long":"-104.9970626",
	"name":"Denver Milk Market",
	"address":"1800 Wazee St, #100 Denver, CO 80202",
	"logo_url":"https://s3.amazonaws.com/motherbrain-prod/vlogo_1634927557674",
	"day":"Thursdays",
	"time":"2021-11-16T02:00:00+0000"
},{
	"url":"https://www.geekswhodrink.com/venues/2167723102",
	"lat":"39.5972949",
	"long":"-104.8957705",
	"name":"Grange Hall",
	"address":"6575 Greenwood Plaza Blvd Greenwood Village, CO 80111",
	"logo_url":"https://s3.amazonaws.com/motherbrain-prod/vlogo_1658332058648",
	"day":"Tuesdays",
	"time":"2022-08-24T01:00:00+0000"
},{
	"url":"https://www.geekswhodrink.com/venues/204918650",
	"lat":"39.75226",
	"long":"-104.9913841",
	"name":"Jagged Mountain Craft Brewery",
	"address":"1139 20th Street Denver, CO 80202",
	"logo_url":"https://s3.amazonaws.com/motherbrain-prod/vlogo_1623076287330",
	"day":"Thursdays",
	"time":"2021-06-11T01:30:00+0000"
},{
	"url":"https://www.geekswhodrink.com/venues/2234094424",
	"lat":"39.7562717",
	"long":"-104.9912319",
	"name":"Cherry Cricket (Ballpark)",
	"address":"2220 Blake Street Denver, CO 80205",
	"logo_url":"https://s3.amazonaws.com/motherbrain-prod/vlogo_1663883687143",
	"day":"Tuesdays",
	"time":"2022-10-26T01:00:00+0000"
},{
	"url":"https://www.geekswhodrink.com/venues/1152019366",
	"lat":"39.8632067",
	"long":"-105.062626",
	"name":"Pandora&#039;s Box @Alamo Drafthouse Westminster",
	"address":"8905 Westminster Blvd Westminster, CO 80031",
	"logo_url":"https://s3.amazonaws.com/motherbrain-prod/vlogo_1643399402930",
	"day":"Wednesdays",
	"time":"2022-02-24T02:00:00+0000"
},{
	"url":"https://www.geekswhodrink.com/venues/1161188111",
	"lat":"39.7369903",
	"long":"-104.9721305",
	"name":"Wild Corgi Pub (check venue for reservations!)",
	"address":"1223 E 13th Ave Denver, CO 80218",
	"logo_url":"https://s3.amazonaws.com/motherbrain-prod/vlogo_1561583046391",
	"day":"Tuesdays",
	"time":"2020-11-11T02:30:00+0000"
},{
	"url":"https://www.geekswhodrink.com/venues/760783622",
	"lat":"39.9760839",
	"long":"-105.1284965",
	"name":"Gravity Brewing",
	"address":"1150 Pine St, Unit B Louisville, CO 80027",
	"logo_url":"https://s3.amazonaws.com/motherbrain-prod/vlogo_1516385024729",
	"day":"Wednesdays",
	"time":"2020-10-29T00:30:00+0000"
},{
	"url":"https://www.geekswhodrink.com/venues/1252935951",
	"lat":"39.9878512",
	"long":"-105.1363573",
	"name":"Mudrock&#039;s Tap &amp; Tavern",
	"address":"585 E South Boulder Rd. Louisville, CO 80027",
	"logo_url":"https://s3.amazonaws.com/motherbrain-prod/vlogo_1571691838544",
	"day":"Tuesdays",
	"time":"2021-03-17T01:00:00+0000"
},{
	"url":"https://www.geekswhodrink.com/venues/22150288",
	"lat":"39.627026",
	"long":"-104.8953453",
	"name":"Darcy&#039;s Bistro &amp; Pub",
	"address":"4955 South Ulster Street #103 Denver, CO 80237",
	"logo_url":"https://s3.amazonaws.com/motherbrain-prod/vlogo_1507611209482",
	"day":"Saturdays",
	"time":"2021-09-05T02:00:00+0000"
},{
	"url":"https://www.geekswhodrink.com/venues/578109853",
	"lat":"39.7551428",
	"long":"-104.976978",
	"name":"Spangalang Brewery",
	"address":"2736 Welton St. STE 102 Denver, CO 80205",
	"logo_url":"https://s3.amazonaws.com/motherbrain-prod/vlogo_1507611072877",
	"day":"Thursdays",
	"time":"2021-05-28T01:00:00+0000"
},{
	"url":"https://www.geekswhodrink.com/venues/169722855",
	"lat":"39.7641691",
	"long":"-104.9813152",
	"name":"Stem Ciders",
	"address":"3040 Blake Street Suite 101 Denver, CO 80205",
	"logo_url":"https://s3.amazonaws.com/motherbrain-prod/vlogo_1507609972718",
	"day":"Wednesdays",
	"time":"2021-05-13T02:00:00+0000"
},{
	"url":"https://www.geekswhodrink.com/venues/1256925246",
	"lat":"39.7648113",
	"long":"-104.9801861",
	"name":"14er Brewing and Beer Garden",
	"address":"3120 Blake St. Unit C Denver, CO 80205",
	"logo_url":"https://s3.amazonaws.com/motherbrain-prod/vlogo_1571873327853",
	"day":"Tuesdays",
	"time":"2022-01-12T02:00:00+0000"
},{
	"url":"https://www.geekswhodrink.com/venues/578108901",
	"lat":"39.770259",
	"long":"-104.97919",
	"name":"Great Divide Brewing Company - Barrel Bar",
	"address":"1812 35th St, Denver, CO 80216",
	"logo_url":"https://s3.amazonaws.com/motherbrain-prod/vlogo_1508375994705",
	"day":"Wednesdays",
	"time":"2020-10-22T01:00:00+0000"
},{
	"url":"https://www.geekswhodrink.com/venues/2001931913",
	"lat":"39.5933505",
	"long":"-104.8568774",
	"name":"Max Taps Co. Centennial",
	"address":"11405 E Briarwood Ave #100 Centennial, CO 80112",
	"logo_url":"https://s3.amazonaws.com/motherbrain-prod/vlogo_1668027195114",
	"day":"Wednesdays",
	"time":"2022-03-03T02:00:00+0000"
},{
	"url":"https://www.geekswhodrink.com/venues/2207755484",
	"lat":"39.5933505",
	"long":"-104.8568774",
	"name":"Max Taps Co. Centennial (Saturday)",
	"address":"11405 E Briarwood Ave #100 Centennial, CO 80112",
	"logo_url":"https://s3.amazonaws.com/motherbrain-prod/vlogo_1661556773649",
	"day":"Saturdays",
	"time":"2022-09-18T01:00:00+0000"
},{
	"url":"https://www.geekswhodrink.com/venues/851510938",
	"lat":"39.7403094",
	"long":"-104.9491214",
	"name":"Atomic Cowboy - Colfax",
	"address":"3237 E. Colfax Ave Denver, CO 80206",
	"logo_url":"https://s3.amazonaws.com/motherbrain-prod/vlogo_1526597771542",
	"day":"Tuesdays",
	"time":"2022-02-23T02:30:00+0000"
},{
	"url":"https://www.geekswhodrink.com/venues/526783344",
	"lat":"39.7298016",
	"long":"-104.9410862",
	"name":"Congress Park Taproom",
	"address":"833 Colorado Blvd Denver, CO 80206",
	"logo_url":"https://s3.amazonaws.com/motherbrain-prod/vlogo_1499960261734",
	"day":"Wednesdays",
	"time":"2021-06-10T01:00:00+0000"
},{
	"url":"https://www.geekswhodrink.com/venues/2327985024",
	"lat":"39.7752947",
	"long":"-104.97054",
	"name":"Left Hand Brewing Co.",
	"address":"4180 Wynkoop St, Suite 140 Denver, CO 80216",
	"logo_url":"https://s3.amazonaws.com/motherbrain-prod/vlogo_1671835222945",
	"day":"Tuesdays",
	"time":"2023-01-25T02:00:00+0000"
},{
	"url":"https://www.geekswhodrink.com/venues/193819073",
	"lat":"39.999521",
	"long":"-105.1035763",
	"name":"Liquid Mechanics Brewing",
	"address":"297 U.S. 287 #100 Lafayette, CO 80026",
	"logo_url":"https://s3.amazonaws.com/motherbrain-prod/vlogo_1507135037243",
	"day":"Wednesdays",
	"time":"2021-06-17T00:30:00+0000"
},{
	"url":"https://www.geekswhodrink.com/venues/108959930",
	"lat":"39.7405923",
	"long":"-104.9277327",
	"name":"The Abbey Tavern",
	"address":"5151 E Colfax Ave Denver, CO 80220",
	"logo_url":"https://s3.amazonaws.com/motherbrain-prod/vlogo_1507134936207",
	"day":"Wednesdays",
	"time":"2021-05-13T01:30:00+0000"
},{
	"url":"https://www.geekswhodrink.com/venues/408873780",
	"lat":"39.9945627",
	"long":"-105.0913428",
	"name":"Post Chicken &amp; Beer - Lafayette",
	"address":"105 W Emma St, Lafayette, CO 80026",
	"logo_url":"https://s3.amazonaws.com/motherbrain-prod/vlogo_1641946807779",
	"day":"Thursdays",
	"time":"2022-01-07T02:00:00+0000"
},{
	"url":"https://www.geekswhodrink.com/venues/2366992342",
	"lat":"39.9979618",
	"long":"-105.0908376",
	"name":"Ghost Box Pizza (Starts on March 14!)",
	"address":"103 South Public Road Lafayette, CO 80026",
	"logo_url":"https://s3.amazonaws.com/motherbrain-prod/vlogo_1675453425078",
	"day":"Tuesdays",
	"time":"2023-03-15T00:30:00+0000"
},{
	"url":"https://www.geekswhodrink.com/venues/2317055010",
	"lat":"39.720811",
	"long":"-104.8961811",
	"name":"Lowry Beer Garden",
	"address":"7577 E Academy Blvd Denver, CO 80230",
	"logo_url":"https://s3.amazonaws.com/motherbrain-prod/vlogo_1670871610923",
	"day":"Tuesdays",
	"time":"2023-01-11T02:00:00+0000"
},{
	"url":"https://www.geekswhodrink.com/venues/1793242863",
	"lat":"39.9157985",
	"long":"-105.0098562",
	"name":"30/70 Sports Bar &amp; Grill",
	"address":"1885 W 120th Ave Westminster, CO 80234",
	"logo_url":"https://s3.amazonaws.com/motherbrain-prod/vlogo_1625436511867",
	"day":"Tuesdays",
	"time":"2021-08-04T01:00:00+0000"
},{
	"url":"https://www.geekswhodrink.com/venues/2180668068",
	"lat":"39.7559662",
	"long":"-104.9013649",
	"name":"Ephemeral Rotating Taproom",
	"address":"2301 E 28th Avenue Denver, CO 80205",
	"logo_url":"https://s3.amazonaws.com/motherbrain-prod/vlogo_1659377976498",
	"day":"Tuesdays",
	"time":"2022-08-31T01:00:00+0000"
},{
	"url":"https://www.geekswhodrink.com/venues/2363279099",
	"lat":"40.1391594",
	"long":"-105.1315146",
	"name":"Oskar Blues Home Made Liquids &amp; Solids (Starts on March 14!)",
	"address":"1555 Hover St, Longmont, CO 80501",
	"logo_url":"https://s3.amazonaws.com/motherbrain-prod/vlogo_1675207712950",
	"day":"Tuesdays",
	"time":"2023-03-15T00:30:00+0000"
},{
	"url":"https://www.geekswhodrink.com/venues/2156400696",
	"lat":"40.1655686",
	"long":"-105.1046392",
	"name":"Abbott &amp; Wallace Distilling",
	"address":"350 Terry St, Ste 120 Longmont, CO 80501-5492",
	"logo_url":"https://s3.amazonaws.com/motherbrain-prod/vlogo_1657838078680",
	"day":"Thursdays",
	"time":"2022-08-05T00:30:00+0000"
},{
	"url":"https://www.geekswhodrink.com/venues/2187552089",
	"lat":"40.1600731",
	"long":"-105.0225932",
	"name":"Outworld Brewing",
	"address":"1725 Vista View Drive Ste B Longmont, CO 80504",
	"logo_url":"https://s3.amazonaws.com/motherbrain-prod/vlogo_1659982744678",
	"day":"Wednesdays",
	"time":"2022-09-08T01:00:00+0000"
},{
	"url":"https://www.geekswhodrink.com/venues/2271217000",
	"lat":"40.3956067",
	"long":"-105.075218",
	"name":"Wicked Tequila Room",
	"address":"123 E 4th St, Loveland, CO 80537",
	"logo_url":"https://s3.amazonaws.com/motherbrain-prod/vlogo_1666828699787",
	"day":"Wednesdays",
	"time":"2022-12-08T03:00:00+0000"
},{
	"url":"https://www.geekswhodrink.com/venues/2004580514",
	"lat":"40.42271",
	"long":"-105.0765196",
	"name":"Krazy Karl&#039;s Pizza Loveland",
	"address":"225 E 29th St, Unit 100 Loveland, CO 80538",
	"logo_url":"https://s3.amazonaws.com/motherbrain-prod/vlogo_1644601038858",
	"day":"Wednesdays",
	"time":"2022-03-03T02:30:00+0000"
},{
	"url":"https://www.geekswhodrink.com/venues/652587175",
	"lat":"40.5392903",
	"long":"-105.0752914",
	"name":"Gilded Goat Brewing Company",
	"address":"3500 S College Ave #194 Fort Collins, CO 80525",
	"logo_url":"https://s3.amazonaws.com/motherbrain-prod/vlogo_1504623294443",
	"day":"Tuesdays",
	"time":"2020-10-28T01:00:00+0000"
},{
	"url":"https://www.geekswhodrink.com/venues/1912821636",
	"lat":"40.5215256",
	"long":"-105.0576137",
	"name":"Otto Pint Fort Collins",
	"address":"1100 Oakridge Drive Fort Collins, CO 80525",
	"logo_url":"https://s3.amazonaws.com/motherbrain-prod/vlogo_1636387850678",
	"day":"Mondays",
	"time":"2021-11-30T02:00:00+0000"
},{
	"url":"https://www.geekswhodrink.com/venues/595861109",
	"lat":"40.5750132",
	"long":"-105.0970762",
	"name":"Krazy Karl&#039;s Pizza",
	"address":"1124 W. Elizabeth St. Fort Collins, CO 80525",
	"logo_url":"https://s3.amazonaws.com/motherbrain-prod/vlogo_1504556005852",
	"day":"Tuesdays",
	"time":"2020-10-21T02:00:00+0000"
},{
	"url":"https://www.geekswhodrink.com/venues/173301769",
	"lat":"40.5512899",
	"long":"-105.0592287",
	"name":"Island Grill",
	"address":"2601 South Lemay Avenue #12 Fort Collins, CO 80525",
	"logo_url":"https://s3.amazonaws.com/motherbrain-prod/vlogo_1504555075715",
	"day":"Thursdays",
	"time":"2020-10-23T01:00:00+0000"
},{
	"url":"https://www.geekswhodrink.com/venues/2238909521",
	"lat":"40.5783197",
	"long":"-105.077433",
	"name":"Half Fast Subs",
	"address":"649 S College Ave, unit B Fort Collins, CO 80524",
	"logo_url":"https://s3.amazonaws.com/motherbrain-prod/vlogo_1664557235408",
	"day":"Thursdays",
	"time":"2022-10-28T01:30:00+0000"
},{
	"url":"https://www.geekswhodrink.com/venues/2180803092",
	"lat":"40.4572963",
	"long":"-104.9821431",
	"name":"Mighty River Brewing",
	"address":"6383 N Fairgrounds Ave, Suite 200 Windsor, CO 80550",
	"logo_url":"https://s3.amazonaws.com/motherbrain-prod/vlogo_1659382786244",
	"day":"Tuesdays",
	"time":"2022-09-07T01:00:00+0000"
},{
	"url":"https://www.geekswhodrink.com/venues/20718193",
	"lat":"40.587438",
	"long":"-105.0782839",
	"name":"Trailhead Tavern",
	"address":"148 W Mountain Ave Fort Collins, CO 80524",
	"logo_url":"https://s3.amazonaws.com/motherbrain-prod/vlogo_1505777934861",
	"day":"Wednesdays",
	"time":"2020-10-29T01:30:00+0000"
},{
	"url":"https://www.geekswhodrink.com/venues/2348173340",
	"lat":"40.5874401",
	"long":"-105.0781066",
	"name":"Gilded Goat Brewing Company - Downtown",
	"address":"132 W Mountain Ave Fort Collins, CO 80524",
	"logo_url":"https://s3.amazonaws.com/motherbrain-prod/vlogo_1673985117438",
	"day":"Thursdays",
	"time":"2023-02-03T02:00:00+0000"
},{
	"url":"https://www.geekswhodrink.com/venues/2260579603",
	"lat":"40.5892529",
	"long":"-105.0773391",
	"name":"Beau Jo&#039;s (Fort Collins)",
	"address":"205 N College Ave Fort Collins, CO 80524",
	"logo_url":"https://s3.amazonaws.com/motherbrain-prod/vlogo_1666035700197",
	"day":"Tuesdays",
	"time":"2022-11-16T02:00:00+0000"
},{
	"url":"https://www.geekswhodrink.com/venues/376637644",
	"lat":"40.5880177",
	"long":"-105.0745551",
	"name":"Illegal Pete&#039;s (Fort Collins)",
	"address":"320 Walnut St, Fort Collins, CO 80524",
	"logo_url":"https://s3.amazonaws.com/motherbrain-prod/vlogo_1504554822878",
	"day":"Wednesdays",
	"time":"2021-07-01T01:00:00+0000"
},{
	"url":"https://www.geekswhodrink.com/venues/548190019",
	"lat":"40.5512258",
	"long":"-105.0387982",
	"name":"Krazy Karl&#039;s Pizza 2",
	"address":"2620 S Timberline Rd Fort Collins, CO 80525",
	"logo_url":"https://s3.amazonaws.com/motherbrain-prod/vlogo_1504556017627",
	"day":"Mondays",
	"time":"2020-10-20T02:00:00+0000"
},{
	"url":"https://www.geekswhodrink.com/venues/835301047",
	"lat":"40.602573",
	"long":"-105.077526",
	"name":"The Lyric",
	"address":"1209 N College Ave Fort Collins, CO 80524",
	"logo_url":"https://s3.amazonaws.com/motherbrain-prod/vlogo_1524847383906",
	"day":"Sundays",
	"time":"2021-03-22T01:00:00+0000"
},{
	"url":"https://www.geekswhodrink.com/venues/2338743860",
	"lat":"40.5800249",
	"long":"-105.0442328",
	"name":"Peculier Ales Fort Collins",
	"address":"1831 E. Mulberry Fort Collins, CO 80524",
	"logo_url":"https://s3.amazonaws.com/motherbrain-prod/vlogo_1673051334653",
	"day":"Mondays",
	"time":"2023-02-14T01:00:00+0000"
},{
	"url":"https://www.geekswhodrink.com/venues/2349133658",
	"lat":"40.5831516",
	"long":"-105.0423678",
	"name":"Funkwerks",
	"address":"1900 E LIncoln Ave Unit B Fort Collins, CO 80524",
	"logo_url":"https://s3.amazonaws.com/motherbrain-prod/vlogo_1674064420766",
	"day":"Thursdays",
	"time":"2023-02-10T01:00:00+0000"
},{
	"url":"https://www.geekswhodrink.com/venues/2375960746",
	"lat":"40.4660491",
	"long":"-104.8880751",
	"name":"Howlers and Growlers (Starts on April 3!)",
	"address":"1246 Automation Dr Windsor, CO 80550",
	"logo_url":"https://s3.amazonaws.com/motherbrain-prod/vlogo_1676312471795",
	"day":"Mondays",
	"time":"2023-04-04T00:00:00+0000"
},{
	"url":"https://www.geekswhodrink.com/venues/34259026",
	"lat":"40.3886012",
	"long":"-104.7867728",
	"name":"The Tavern - St. Michael&#039;s Square",
	"address":"2918 67th Avenue Greeley, CO 80634",
	"logo_url":"https://s3.amazonaws.com/motherbrain-prod/vlogo_1505843407666",
	"day":"Sundays",
	"time":"2021-03-29T02:00:00+0000"
},{
	"url":"https://www.geekswhodrink.com/venues/972438012",
	"lat":"45.5002982",
	"long":"-122.4323595",
	"name":"The Low Road",
	"address":"400 NW Miller Ave Gresham, OR 97030",
	"logo_url":"https://s3.amazonaws.com/motherbrain-prod/vlogo_1540854961220",
	"day":"Wednesdays",
	"time":"2022-01-13T02:00:00+0000"
},{
	"url":"https://www.geekswhodrink.com/venues/2129327900",
	"lat":"45.4617143",
	"long":"-122.6395136",
	"name":"SportsBox Vegan Bar &amp; Grill",
	"address":"8445 SE McLoughlin Blvd Portland, OR 97222",
	"logo_url":"https://s3.amazonaws.com/motherbrain-prod/vlogo_1655320318272",
	"day":"Tuesdays",
	"time":"2022-07-20T01:30:00+0000"
},{
	"url":"https://www.geekswhodrink.com/venues/2181702351",
	"lat":"45.5647039",
	"long":"-122.3268661",
	"name":"54-40 Brewing",
	"address":"3801 South Truman Street Washougal, WA 98671",
	"logo_url":"https://s3.amazonaws.com/motherbrain-prod/vlogo_1659458930852",
	"day":"Wednesdays",
	"time":"2022-09-08T00:00:00+0000"
},{
	"url":"https://www.geekswhodrink.com/venues/705390971",
	"lat":"45.4850035",
	"long":"-122.6392663",
	"name":"Gigantic Brewing Company",
	"address":"5224 SE 26th Ave Portland, OR 97202",
	"logo_url":"https://s3.amazonaws.com/motherbrain-prod/vlogo_1649959986365",
	"day":"Wednesdays",
	"time":"2021-07-29T01:00:00+0000"
},{
	"url":"https://www.geekswhodrink.com/venues/2260665806",
	"lat":"45.4934693",
	"long":"-122.6233889",
	"name":"Saint Pizza Lounge",
	"address":"3817 SE Gladstone St. Portland, OR 97202",
	"logo_url":"https://s3.amazonaws.com/motherbrain-prod/vlogo_1666038880232",
	"day":"Saturdays",
	"time":"2022-11-20T03:00:00+0000"
},{
	"url":"https://www.geekswhodrink.com/venues/358737857",
	"lat":"45.4459697",
	"long":"-122.7934814",
	"name":"BrewStop Taphouse",
	"address":"11427 SW Scholls Ferry Rd Beaverton, OR 97008",
	"logo_url":"https://s3.amazonaws.com/motherbrain-prod/vlogo_1654618977865",
	"day":"Tuesdays",
	"time":"2021-08-18T01:00:00+0000"
},{
	"url":"https://www.geekswhodrink.com/venues/2185425903",
	"lat":"45.4968699",
	"long":"-122.6348437",
	"name":"Hopworks Urban Brewery",
	"address":"2944 SE Powell Blvd Portland, OR 97202",
	"logo_url":"https://s3.amazonaws.com/motherbrain-prod/vlogo_1659714880151",
	"day":"Thursdays",
	"time":"2022-09-16T01:00:00+0000"
},{
	"url":"https://www.geekswhodrink.com/venues/1798614698",
	"lat":"45.4985415",
	"long":"-122.6408407",
	"name":"Baby Ketten Klub",
	"address":"2433 SE Powell Blvd Portland, OR 97202",
	"logo_url":"https://s3.amazonaws.com/motherbrain-prod/vlogo_1626880462616",
	"day":"Tuesdays",
	"time":"2021-08-11T01:00:00+0000"
},{
	"url":"https://www.geekswhodrink.com/venues/2042194426",
	"lat":"45.5265916",
	"long":"-122.5812688",
	"name":"East Glisan Pizza Lounge",
	"address":"8001 NE Glisan St, Portland, OR 97213",
	"logo_url":"https://s3.amazonaws.com/motherbrain-prod/vlogo_1647984059510",
	"day":"Tuesdays",
	"time":"2022-05-04T00:30:00+0000"
},{
	"url":"https://www.geekswhodrink.com/venues/2344035985",
	"lat":"45.5122",
	"long":"-122.642938",
	"name":"Hawthorne Hideaway (Starts on March 6!)",
	"address":"2221 se Hawthorne Blvd Portland, OR 97214",
	"logo_url":"https://s3.amazonaws.com/motherbrain-prod/vlogo_1673554794597",
	"day":"Mondays",
	"time":"2023-03-07T02:30:00+0000"
},{
	"url":"https://www.geekswhodrink.com/venues/2255833937",
	"lat":"45.5167978",
	"long":"-122.6559875",
	"name":"Cascade Brewing",
	"address":"939 se Belmont street Portland, OR 97214",
	"logo_url":"https://s3.amazonaws.com/motherbrain-prod/vlogo_1665673468852",
	"day":"Thursdays",
	"time":"2022-11-11T02:00:00+0000"
},{
	"url":"https://www.geekswhodrink.com/venues/2373926945",
	"lat":"45.5194306",
	"long":"-122.6514812",
	"name":"Grand Fir Brewing (Starts on March 21!)",
	"address":"1403 SE Stark St, Portland, OR 97214",
	"logo_url":"https://s3.amazonaws.com/motherbrain-prod/vlogo_1676048307168",
	"day":"Tuesdays",
	"time":"2023-03-22T01:30:00+0000"
},{
	"url":"https://www.geekswhodrink.com/venues/2156446139",
	"lat":"45.5174948",
	"long":"-122.6609934",
	"name":"Swan Dive",
	"address":"727 SE Grand Ave Portland, OR 97214",
	"logo_url":"https://s3.amazonaws.com/motherbrain-prod/vlogo_1657838080699",
	"day":"Wednesdays",
	"time":"2022-08-04T01:00:00+0000"
},{
	"url":"https://www.geekswhodrink.com/venues/2291351571",
	"lat":"45.5198391",
	"long":"-122.656306",
	"name":"Ecliptic Brewing - Moon Room",
	"address":"930 SE Oak St. Portland, OR 97214",
	"logo_url":"https://s3.amazonaws.com/motherbrain-prod/vlogo_1668556858190",
	"day":"Sundays",
	"time":"2023-01-09T02:00:00+0000"
},{
	"url":"https://www.geekswhodrink.com/venues/100243822",
	"lat":"45.5348465",
	"long":"-122.6417927",
	"name":"Rose &amp; Thistle Pub",
	"address":"2314 NE Broadway St, Portland, OR 97232",
	"logo_url":"https://s3.amazonaws.com/motherbrain-prod/vlogo_1501885592995",
	"day":"Mondays",
	"time":"2021-11-09T02:00:00+0000"
},{
	"url":"https://www.geekswhodrink.com/venues/1330178319",
	"lat":"45.5349108",
	"long":"-122.6482146",
	"name":"Broadway Grill and Brewery",
	"address":"1700 NE Broadway St, Portland, OR 97232",
	"logo_url":"https://s3.amazonaws.com/motherbrain-prod/vlogo_1583185128328",
	"day":"Wednesdays",
	"time":"2021-08-19T01:00:00+0000"
},{
	"url":"https://www.geekswhodrink.com/venues/2350739414",
	"lat":"45.527445",
	"long":"-122.6848232",
	"name":"The Star Portland (Starts on March 7!)",
	"address":"1309 NW Hoyt St. Portland, OR 97209",
	"logo_url":"https://s3.amazonaws.com/motherbrain-prod/vlogo_1674167686972",
	"day":"Tuesdays",
	"time":"2023-03-08T01:30:00+0000"
},{
	"url":"https://www.geekswhodrink.com/venues/2358011761",
	"lat":"45.4908521",
	"long":"-122.8279874",
	"name":"Portland Cider (Starts on March 9!)",
	"address":"4005 SE Orbit Street Beaverton, OR 97007",
	"logo_url":"https://s3.amazonaws.com/motherbrain-prod/vlogo_1674757765573",
	"day":"Thursdays",
	"time":"2023-03-10T02:00:00+0000"
},{
	"url":"https://www.geekswhodrink.com/venues/2108729010",
	"lat":"45.5302176",
	"long":"-122.6882658",
	"name":"The Triple Lindy",
	"address":"1000 NW 17th Avenue Portland, OR 97209",
	"logo_url":"https://s3.amazonaws.com/motherbrain-prod/vlogo_1653512493570",
	"day":"Mondays",
	"time":"2022-06-28T01:30:00+0000"
},{
	"url":"https://www.geekswhodrink.com/venues/1956014835",
	"lat":"45.5473391",
	"long":"-122.6752236",
	"name":"Ecliptic Brewing",
	"address":"825 N Cook St, Portland, OR 97227",
	"logo_url":"https://s3.amazonaws.com/motherbrain-prod/vlogo_1657664580549",
	"day":"Thursdays",
	"time":"2022-07-22T01:00:00+0000"
},{
	"url":"https://www.geekswhodrink.com/venues/2247649007",
	"lat":"44.5257409",
	"long":"-109.053176",
	"name":"Cody Craft Brewing",
	"address":"1732 Sheridan Ave Cody, WY 82414",
	"logo_url":"https://s3.amazonaws.com/motherbrain-prod/vlogo_1665005454625",
	"day":"Tuesdays",
	"time":"2022-11-09T01:00:00+0000"
},{
	"url":"https://www.geekswhodrink.com/venues/2212065258",
	"lat":"46.2000316",
	"long":"-119.2239651",
	"name":"Sage Brewing Co. - Kennewick",
	"address":"910 S Columbia Center Blvd suite g Kennewick, WA 99336",
	"logo_url":"https://s3.amazonaws.com/motherbrain-prod/vlogo_1661982124181",
	"day":"Wednesdays",
	"time":"2022-10-06T01:00:00+0000"
},{
	"url":"https://www.geekswhodrink.com/venues/2280281532",
	"lat":"45.5817803",
	"long":"-122.7226489",
	"name":"The Twilight Room",
	"address":"5242 N Lombard St, Portland, OR 97203",
	"logo_url":"https://s3.amazonaws.com/motherbrain-prod/vlogo_1667574927239",
	"day":"Sundays",
	"time":"2022-12-05T02:00:00+0000"
},{
	"url":"https://www.geekswhodrink.com/venues/1918465494",
	"lat":"45.5556047",
	"long":"-122.8346608",
	"name":"Bethany Public House",
	"address":"4840 NW Bethany Blvd Portland, OR 97229",
	"logo_url":"https://s3.amazonaws.com/motherbrain-prod/vlogo_1636656043292",
	"day":"Tuesdays",
	"time":"2022-01-12T02:00:00+0000"
},{
	"url":"https://www.geekswhodrink.com/venues/1840935078",
	"lat":"46.2287764",
	"long":"-119.2411687",
	"name":"Moonshot Brewing",
	"address":"8804 W Victoria Ave, Suite 140 Kennewick, WA 99336",
	"logo_url":"https://s3.amazonaws.com/motherbrain-prod/vlogo_1629742017461",
	"day":"Mondays",
	"time":"2021-09-21T00:30:00+0000"
},{
	"url":"https://www.geekswhodrink.com/venues/974524724",
	"lat":"45.6252284",
	"long":"-122.673635",
	"name":"Loowit Brewing",
	"address":"507 Columbia St, Vancouver, WA 98660",
	"logo_url":"https://s3.amazonaws.com/motherbrain-prod/vlogo_1541023333388",
	"day":"Sundays",
	"time":"2021-12-13T02:00:00+0000"
},{
	"url":"https://www.geekswhodrink.com/venues/559794532",
	"lat":"45.5211715",
	"long":"-123.1129836",
	"name":"Ridgewalker Brewing",
	"address":"1921 21st Ave Forest Grove, OR 97116",
	"logo_url":"https://s3.amazonaws.com/motherbrain-prod/vlogo_1501884571997",
	"day":"Mondays",
	"time":"2021-07-20T00:30:00+0000"
},{
	"url":"https://www.geekswhodrink.com/venues/2256472316",
	"lat":"46.2706174",
	"long":"-119.202496",
	"name":"Sage Brewing Co. - Pasco",
	"address":"8425 Chapel Hill Blvd Ste B 102 Pasco, WA 99301",
	"logo_url":"https://s3.amazonaws.com/motherbrain-prod/vlogo_1665699048883",
	"day":"Saturdays",
	"time":"2022-11-27T02:00:00+0000"
},{
	"url":"https://www.geekswhodrink.com/venues/224332038",
	"lat":"46.2869545",
	"long":"-119.2763735",
	"name":"Emerald of Siam",
	"address":"1314 Jadwin Ave Richland, WA 99354",
	"logo_url":"https://s3.amazonaws.com/motherbrain-prod/vlogo_1619049018599",
	"day":"Thursdays",
	"time":"2021-03-19T01:30:00+0000"
},{
	"url":"https://www.geekswhodrink.com/venues/1990759463",
	"lat":"45.798254",
	"long":"-122.6607513",
	"name":"3 Peaks Public House &amp; Taproom",
	"address":"24415 NE 10th Ave Ridgefield, WA 98642",
	"logo_url":"https://s3.amazonaws.com/motherbrain-prod/vlogo_1643402822741",
	"day":"Tuesdays",
	"time":"2022-03-09T02:00:00+0000"
},{
	"url":"https://www.geekswhodrink.com/venues/194077070",
	"lat":"33.5960763",
	"long":"-101.9263019",
	"name":"Glass Half Full @Alamo Drafthouse Lubbock",
	"address":"120 W Loop 289 Lubbock, TX 79416",
	"logo_url":"https://s3.amazonaws.com/motherbrain-prod/vlogo_1643400178836",
	"day":"Tuesdays",
	"time":"2021-09-15T01:00:00+0000"
},{
	"url":"https://www.geekswhodrink.com/venues/2348995020",
	"lat":"32.0047154",
	"long":"-102.1213702",
	"name":"Tall City Brewing Company (Starts on March 21!)",
	"address":"3303 W Golf Course Rd Midland, TX 79703",
	"logo_url":"https://s3.amazonaws.com/motherbrain-prod/vlogo_1674059301999",
	"day":"Tuesdays",
	"time":"2023-03-22T01:00:00+0000"
},{
	"url":"https://www.geekswhodrink.com/venues/2209484361",
	"lat":"46.6009395",
	"long":"-120.5051032",
	"name":"The Tap",
	"address":"105 S 1st St, #106 Yakima, WA 98901",
	"logo_url":"https://s3.amazonaws.com/motherbrain-prod/vlogo_1661813247673",
	"day":"Wednesdays",
	"time":"2022-10-06T01:00:00+0000"
},{
	"url":"https://www.geekswhodrink.com/venues/2010860568",
	"lat":"47.656707",
	"long":"-117.4258088",
	"name":"The District Bar",
	"address":"916 W 1st Ave Spokane, WA 99201",
	"logo_url":"https://s3.amazonaws.com/motherbrain-prod/vlogo_1645116769458",
	"day":"Thursdays",
	"time":"2022-03-18T02:00:00+0000"
},{
	"url":"https://www.geekswhodrink.com/venues/2304238684",
	"lat":"47.7159714",
	"long":"-117.435885",
	"name":"Cascadia Public House",
	"address":"6314 N. Ash st Spokane, WA 99208",
	"logo_url":"https://s3.amazonaws.com/motherbrain-prod/vlogo_1669819000530",
	"day":"Tuesdays",
	"time":"2023-01-18T02:00:00+0000"
},{
	"url":"https://www.geekswhodrink.com/venues/1796533558",
	"lat":"47.2411606",
	"long":"-122.2553137",
	"name":"Half Lion Brewing Company",
	"address":"1723 w valley highway E #101 Sumner, WA 98390",
	"logo_url":"https://s3.amazonaws.com/motherbrain-prod/vlogo_1626278809420",
	"day":"Wednesdays",
	"time":"2021-08-05T01:00:00+0000"
},{
	"url":"https://www.geekswhodrink.com/venues/2228045018",
	"lat":"47.2963797",
	"long":"-122.2459811",
	"name":"Dave and Buster&#039;s - Auburn",
	"address":"1101 Outlet Collection Dr SW Auburn, WA 98001",
	"logo_url":"https://s3.amazonaws.com/motherbrain-prod/vlogo_1663354430739",
	"day":"Tuesdays",
	"time":"2022-10-05T01:30:00+0000"
},{
	"url":"https://www.geekswhodrink.com/venues/252807086",
	"lat":"47.2618341",
	"long":"-122.4459166",
	"name":"Doyle&#039;s Public House",
	"address":"208 Saint Helens Avenue Tacoma, WA 98402",
	"logo_url":"https://s3.amazonaws.com/motherbrain-prod/vlogo_1625179396642",
	"day":"Thursdays",
	"time":"2021-08-06T02:00:00+0000"
},{
	"url":"https://www.geekswhodrink.com/venues/1310406080",
	"lat":"47.4953096",
	"long":"-121.7860474",
	"name":"Volition Brewing",
	"address":"112 W North Bend Way North Bend, WA 98045",
	"logo_url":"https://s3.amazonaws.com/motherbrain-prod/vlogo_1578354169179",
	"day":"Mondays",
	"time":"2020-01-29T02:00:00+0000"
},{
	"url":"https://www.geekswhodrink.com/venues/1898850028",
	"lat":"47.4887121",
	"long":"-122.1554481",
	"name":"Bickersons Brewhouse",
	"address":"4710 NE 4th St, Suite. C105 Renton, WA 98059",
	"logo_url":"https://s3.amazonaws.com/motherbrain-prod/vlogo_1634934077174",
	"day":"Thursdays",
	"time":"2021-11-12T02:00:00+0000"
},{
	"url":"https://www.geekswhodrink.com/venues/167678904",
	"lat":"47.4984246",
	"long":"-122.2042679",
	"name":"Trenchers Kitchen and Tap",
	"address":"822 N 10th Pl #305C Renton, WA 98057",
	"logo_url":"https://s3.amazonaws.com/motherbrain-prod/vlogo_1646075306589",
	"day":"Wednesdays",
	"time":"2021-02-18T01:30:00+0000"
},{
	"url":"https://www.geekswhodrink.com/venues/542489206",
	"lat":"47.552109",
	"long":"-122.1774176",
	"name":"Resonate Brewery",
	"address":"5606 119th Ave SE Bellevue, WA 98006",
	"logo_url":"https://s3.amazonaws.com/motherbrain-prod/vlogo_1499960240316",
	"day":"Tuesdays",
	"time":"2021-07-07T01:30:00+0000"
},{
	"url":"https://www.geekswhodrink.com/venues/2139612481",
	"lat":"47.5556743",
	"long":"-122.2706048",
	"name":"Chuck&#039;s Hop Shop - Seward Park",
	"address":"5041 Wilson Ave S Seattle, WA 98118",
	"logo_url":"https://s3.amazonaws.com/motherbrain-prod/vlogo_1666046408837",
	"day":"Wednesdays",
	"time":"2022-07-28T01:00:00+0000"
},{
	"url":"https://www.geekswhodrink.com/venues/2228080207",
	"lat":"47.6127262",
	"long":"-122.1845741",
	"name":"Dave and Buster&#039;s - Bellevue",
	"address":"11639 NE 4th Street Bellevue, WA 98004",
	"logo_url":"https://s3.amazonaws.com/motherbrain-prod/vlogo_1663355921672",
	"day":"Tuesdays",
	"time":"2022-11-02T01:30:00+0000"
},{
	"url":"https://www.geekswhodrink.com/venues/120253962",
	"lat":"47.614307",
	"long":"-122.317368",
	"name":"The Unicorn",
	"address":"1118 E Pike St, Seattle, WA 98122",
	"logo_url":"https://s3.amazonaws.com/motherbrain-prod/vlogo_1506357871541",
	"day":"Thursdays",
	"time":"2021-06-04T01:30:00+0000"
},{
	"url":"https://www.geekswhodrink.com/venues/37043897",
	"lat":"47.6145002",
	"long":"-122.3470547",
	"name":"Buckley&#039;s In Belltown",
	"address":"2331 2nd Ave Seattle, WA 98121",
	"logo_url":"https://s3.amazonaws.com/motherbrain-prod/vlogo_1501886657631",
	"day":"Tuesdays",
	"time":"2021-07-07T01:30:00+0000"
},{
	"url":"https://www.geekswhodrink.com/venues/1852775335",
	"lat":"47.6147845",
	"long":"-122.3558209",
	"name":"PUB 70",
	"address":"2801 Alaskan Way Seattle, WA 98121",
	"logo_url":"https://s3.amazonaws.com/motherbrain-prod/vlogo_1630953103620",
	"day":"Wednesdays",
	"time":"2021-10-07T01:30:00+0000"
},{
	"url":"https://www.geekswhodrink.com/venues/1801617650",
	"lat":"47.6187051",
	"long":"-122.3460748",
	"name":"Teku Tavern",
	"address":"552 Denny Way Seattle, WA 98109",
	"logo_url":"https://s3.amazonaws.com/motherbrain-prod/vlogo_1667404842028",
	"day":"Wednesdays",
	"time":"2021-08-12T01:00:00+0000"
},{
	"url":"https://www.geekswhodrink.com/venues/415151062",
	"lat":"47.6207814",
	"long":"-122.3597316",
	"name":"Queen Anne Beerhall",
	"address":"203 W. Thomas St. Seattle, WA 98119",
	"logo_url":"https://s3.amazonaws.com/motherbrain-prod/vlogo_1653510853540",
	"day":"Tuesdays",
	"time":"2021-02-24T02:30:00+0000"
},{
	"url":"https://www.geekswhodrink.com/venues/37243341",
	"lat":"47.6243471",
	"long":"-122.3583061",
	"name":"Ozzie&#039;s Seattle",
	"address":"105 W Mercer St, Seattle, WA 98119",
	"logo_url":"https://s3.amazonaws.com/motherbrain-prod/vlogo_1501886774716",
	"day":"Wednesdays",
	"time":"2021-05-20T01:00:00+0000"
},{
	"url":"https://www.geekswhodrink.com/venues/19349455",
	"lat":"47.6393643",
	"long":"-122.3993489",
	"name":"Magnolia Village Pub",
	"address":"3221 W McGraw Street Seattle, WA 98199",
	"logo_url":"https://s3.amazonaws.com/motherbrain-prod/vlogo_1506622612283",
	"day":"Wednesdays",
	"time":"2021-07-15T01:30:00+0000"
},{
	"url":"https://www.geekswhodrink.com/venues/627211646",
	"lat":"47.6521587",
	"long":"-122.3552416",
	"name":"LTD Bar and Grill",
	"address":"309 N 36th St, Seattle, WA 98103",
	"logo_url":"https://s3.amazonaws.com/motherbrain-prod/vlogo_1506101967445",
	"day":"Tuesdays",
	"time":"2021-07-28T02:00:00+0000"
},{
	"url":"https://www.geekswhodrink.com/venues/34523415",
	"lat":"47.6618827",
	"long":"-122.3418701",
	"name":"Blue Star Cafe &amp; Pub",
	"address":"4512 Stone Way N Seattle, WA 98103",
	"logo_url":"https://s3.amazonaws.com/motherbrain-prod/vlogo_1501886675241",
	"day":"Mondays",
	"time":"2023-02-28T02:00:00+0000"
},{
	"url":"https://www.geekswhodrink.com/venues/1158921289",
	"lat":"47.6689447",
	"long":"-122.3842866",
	"name":"Ballard Beer Company",
	"address":"2050 NW Market St. Seattle, WA 98107",
	"logo_url":"https://s3.amazonaws.com/motherbrain-prod/vlogo_1561148717136",
	"day":"Tuesdays",
	"time":"2021-10-13T02:00:00+0000"
},{
	"url":"https://www.geekswhodrink.com/venues/1058589945",
	"lat":"47.7052816",
	"long":"-122.212214",
	"name":"JB Bungalow",
	"address":"9714 NE Juanita Dr Kirkland, WA 98034",
	"logo_url":"https://s3.amazonaws.com/motherbrain-prod/vlogo_1550518506403",
	"day":"Tuesdays",
	"time":"2019-03-20T01:00:00+0000"
},{
	"url":"https://www.geekswhodrink.com/venues/359294247",
	"lat":"47.6921046",
	"long":"-122.3550067",
	"name":"Flying Bike Cooperative Brewery",
	"address":"8570 Greenwood Ave. N. Seattle, WA 98103",
	"logo_url":"https://s3.amazonaws.com/motherbrain-prod/vlogo_1504758196635",
	"day":"Mondays",
	"time":"2021-08-17T01:00:00+0000"
},{
	"url":"https://www.geekswhodrink.com/venues/2257850049",
	"lat":"47.6909131",
	"long":"-122.3657925",
	"name":"Chuck&#039;s Hop Shop - Greenwood",
	"address":"656 NW 85th St, Seattle, WA 98117",
	"logo_url":"https://s3.amazonaws.com/motherbrain-prod/vlogo_1666046432925",
	"day":"Tuesdays",
	"time":"2022-11-23T02:00:00+0000"
},{
	"url":"https://www.geekswhodrink.com/venues/681246777",
	"lat":"31.459835",
	"long":"-100.434649",
	"name":"The Martial Pint",
	"address":"19 E Concho Ave San Angelo, TX 76903",
	"logo_url":"https://s3.amazonaws.com/motherbrain-prod/vlogo_1650388736380",
	"day":"Tuesdays",
	"time":"2021-06-02T01:30:00+0000"
},{
	"url":"https://www.geekswhodrink.com/venues/2350254615",
	"lat":"47.8640259",
	"long":"-121.975208",
	"name":"Bugu Brewing Company (Starts on March 1!)",
	"address":"14751 N Kelsey ST #107 Monroe, WA 98272",
	"logo_url":"https://s3.amazonaws.com/motherbrain-prod/vlogo_1674147522813",
	"day":"Wednesdays",
	"time":"2023-03-02T01:00:00+0000"
},{
	"url":"https://www.geekswhodrink.com/venues/1929558065",
	"lat":"47.8089235",
	"long":"-122.3867544",
	"name":"Salish Sea Brewing",
	"address":"180 W Dayton st Edmonds, WA 98020",
	"logo_url":"https://s3.amazonaws.com/motherbrain-prod/vlogo_1637687582974",
	"day":"Wednesdays",
	"time":"2022-01-06T02:00:00+0000"
},{
	"url":"https://www.geekswhodrink.com/venues/2308690314",
	"lat":"35.5811498",
	"long":"-97.5675091",
	"name":"Hopscotch",
	"address":"10909 N May Ave Oklahoma City, OK 73120",
	"logo_url":"https://s3.amazonaws.com/motherbrain-prod/vlogo_1670210365162",
	"day":"Tuesdays",
	"time":"2023-01-11T02:30:00+0000"
},{
	"url":"https://www.geekswhodrink.com/venues/709245219",
	"lat":"35.4686196",
	"long":"-97.5291333",
	"name":"Stonecloud Brewing Company",
	"address":"1012 NW 1st St, Suite 101 Oklahoma City, OK 73106",
	"logo_url":"https://s3.amazonaws.com/motherbrain-prod/vlogo_1509039450222",
	"day":"Mondays",
	"time":"2021-04-13T01:00:00+0000"
},{
	"url":"https://www.geekswhodrink.com/venues/1765365079",
	"lat":"35.6547287",
	"long":"-97.4818183",
	"name":"Frenzy Brewing Company",
	"address":"15 South Broadway Edmond, OK 73034",
	"logo_url":"https://s3.amazonaws.com/motherbrain-prod/vlogo_1623082348740",
	"day":"Wednesdays",
	"time":"2021-07-08T01:00:00+0000"
},{
	"url":"https://www.geekswhodrink.com/venues/1239558234",
	"lat":"35.221615",
	"long":"-97.442569",
	"name":"The Meating Place",
	"address":"121 E Main St, Norman, OK 73069",
	"logo_url":"https://s3.amazonaws.com/motherbrain-prod/vlogo_1619050506031",
	"day":"Thursdays",
	"time":"2021-04-02T01:30:00+0000"
},{
	"url":"https://www.geekswhodrink.com/venues/2123371342",
	"lat":"35.2228474",
	"long":"-97.4381566",
	"name":"Lazy Circles Brewing",
	"address":"422 E Main St. Norman, OK 73071",
	"logo_url":"https://s3.amazonaws.com/motherbrain-prod/vlogo_1654806919562",
	"day":"Tuesdays",
	"time":"2022-07-13T01:00:00+0000"
},{
	"url":"https://www.geekswhodrink.com/venues/466392117",
	"lat":"29.4895167",
	"long":"-98.6661828",
	"name":"Mad Pecker Brewing Co.",
	"address":"6025 Tezel Rd. #122 San Antonio, TX 78250",
	"logo_url":"https://s3.amazonaws.com/motherbrain-prod/vlogo_1675278588060",
	"day":"Wednesdays",
	"time":"2021-07-08T01:00:00+0000"
},{
	"url":"https://www.geekswhodrink.com/venues/2278173756",
	"lat":"29.3815401",
	"long":"-98.5653201",
	"name":"Boeing Center - Tech Port",
	"address":"3331 General Hudnell Dr San Antonio, TX 78226",
	"logo_url":"https://s3.amazonaws.com/motherbrain-prod/vlogo_1675878152011",
	"day":"Thursdays",
	"time":"2022-12-09T02:00:00+0000"
},{
	"url":"https://www.geekswhodrink.com/venues/977176449",
	"lat":"29.4319118",
	"long":"-98.4823173",
	"name":"Roadmap Brewing Co",
	"address":"723 N. Alamo St. San Antonio, TX 78215",
	"logo_url":"https://s3.amazonaws.com/motherbrain-prod/vlogo_1541524101814",
	"day":"Thursdays",
	"time":"2020-11-20T02:30:00+0000"
},{
	"url":"https://www.geekswhodrink.com/venues/2354428704",
	"lat":"29.4131438",
	"long":"-98.4882984",
	"name":"Southtown 101",
	"address":"101 Pereida St, San Antonio, TX 78210",
	"logo_url":"https://s3.amazonaws.com/motherbrain-prod/vlogo_1674518498112",
	"day":"Mondays",
	"time":"2023-02-28T02:00:00+0000"
},{
	"url":"https://www.geekswhodrink.com/venues/902796168",
	"lat":"32.7071306",
	"long":"-97.3601544",
	"name":"University Pub",
	"address":"3019 S University Drive Fort Worth, TX 76109",
	"logo_url":"https://s3.amazonaws.com/motherbrain-prod/vlogo_1533142128690",
	"day":"Tuesdays",
	"time":"2021-01-20T03:00:00+0000"
},{
	"url":"https://www.geekswhodrink.com/venues/2335004621",
	"lat":"36.1160974",
	"long":"-97.0595494",
	"name":"Iron Monk Brewing Co. (Starts on March 1!)",
	"address":"519 S. Husband St. Stillwater, OK 74074",
	"logo_url":"https://s3.amazonaws.com/motherbrain-prod/vlogo_1672776840594",
	"day":"Wednesdays",
	"time":"2023-03-02T02:00:00+0000"
},{
	"url":"https://www.geekswhodrink.com/venues/2030510154",
	"lat":"32.746015",
	"long":"-97.328098",
	"name":"T&amp;P Tavern",
	"address":"221 W Lancaster Avenue, #1000 Fort Worth, TX 76102",
	"logo_url":"https://s3.amazonaws.com/motherbrain-prod/vlogo_1646781745333",
	"day":"Tuesdays",
	"time":"2022-04-06T01:00:00+0000"
},{
	"url":"https://www.geekswhodrink.com/venues/1928789494",
	"lat":"32.7415838",
	"long":"-97.3246956",
	"name":"HopFusion Ale Works",
	"address":"200 E BROADWAY AVE Fort Worth, TX 76104",
	"logo_url":"https://s3.amazonaws.com/motherbrain-prod/vlogo_1637617031085",
	"day":"Thursdays",
	"time":"2022-01-07T03:00:00+0000"
},{
	"url":"https://www.geekswhodrink.com/venues/2363314121",
	"lat":"31.0838524",
	"long":"-97.7024685",
	"name":"Bubba&#039;s 33",
	"address":"3701 E Central TX EXPY Killeen, TX 76543",
	"logo_url":"https://s3.amazonaws.com/motherbrain-prod/vlogo_1675210234555",
	"day":"Wednesdays",
	"time":"2023-03-16T01:00:00+0000"
},{
	"url":"https://www.geekswhodrink.com/venues/2342593629",
	"lat":"30.4977812",
	"long":"-97.8207897",
	"name":"The Dig Pub",
	"address":"401 Cypress Creek Rd, 600 Cedar Park, TX 78613",
	"logo_url":"https://s3.amazonaws.com/motherbrain-prod/vlogo_1673465751593",
	"day":"Thursdays",
	"time":"2023-02-10T02:00:00+0000"
},{
	"url":"https://www.geekswhodrink.com/venues/2226897031",
	"lat":"30.3402795",
	"long":"-97.8631897",
	"name":"Patrizis West",
	"address":"1705 Cuernavaca Dr N Austin, TX 78733",
	"logo_url":"https://s3.amazonaws.com/motherbrain-prod/vlogo_1663270611189",
	"day":"Wednesdays",
	"time":"2022-10-20T01:00:00+0000"
},{
	"url":"https://www.geekswhodrink.com/venues/1921388290",
	"lat":"30.462205",
	"long":"-97.8140429",
	"name":"Slackers Brewing Co.",
	"address":"12233 Ranch Rd 620 N #204 Austin, TX 78750",
	"logo_url":"https://s3.amazonaws.com/motherbrain-prod/vlogo_1639425908259",
	"day":"Wednesdays",
	"time":"2021-12-09T02:00:00+0000"
},{
	"url":"https://www.geekswhodrink.com/venues/164279323",
	"lat":"30.4768636",
	"long":"-97.803898",
	"name":"Glass Half Full @Alamo Drafthouse Lakeline",
	"address":"14028 U.S. 183 Austin, TX 78717",
	"logo_url":"https://s3.amazonaws.com/motherbrain-prod/vlogo_1643400221319",
	"day":"Mondays",
	"time":"2022-02-08T03:00:00+0000"
},{
	"url":"https://www.geekswhodrink.com/venues/2330621970",
	"lat":"32.8915325",
	"long":"-97.1462023",
	"name":"Look Cinemas - Colleyville",
	"address":"5655 Colleyville Blvd, #300 Colleyville, TX 76034",
	"logo_url":"https://s3.amazonaws.com/motherbrain-prod/vlogo_1672769929091",
	"day":"Wednesdays",
	"time":"2023-01-19T02:30:00+0000"
},{
	"url":"https://www.geekswhodrink.com/venues/364268288",
	"lat":"30.5336382",
	"long":"-97.7810309",
	"name":"Red Horn Coffee House and Brewing (Cedar Park)",
	"address":"13010 W Parmer Ln Unit 800 Cedar Park, TX 78613",
	"logo_url":"https://s3.amazonaws.com/motherbrain-prod/vlogo_1501783672465",
	"day":"Tuesdays",
	"time":"2021-09-01T00:30:00+0000"
},{
	"url":"https://www.geekswhodrink.com/venues/37034165",
	"lat":"30.2008446",
	"long":"-97.8673772",
	"name":"400 Rabbits @Alamo Drafthouse Slaughter Lane",
	"address":"5701 W. Slaughter Ln Austin, TX 78739",
	"logo_url":"https://s3.amazonaws.com/motherbrain-prod/vlogo_1643400442798",
	"day":"Mondays",
	"time":"2022-02-22T03:00:00+0000"
},{
	"url":"https://www.geekswhodrink.com/venues/601804025",
	"lat":"30.372314",
	"long":"-97.8022228",
	"name":"Coffee Shark Espresso and Pints",
	"address":"7300 Ranch Rd 2222 Austin, TX 78730",
	"logo_url":"https://s3.amazonaws.com/motherbrain-prod/vlogo_1648660854001",
	"day":"Saturdays",
	"time":"2022-04-17T01:00:00+0000"
},{
	"url":"https://www.geekswhodrink.com/venues/2365763260",
	"lat":"32.8851855",
	"long":"-97.0980269",
	"name":"Chicken N Pickle- Grapevine (Starts on March 7!)",
	"address":"4600 Merlot Ave Grapevine, TX 76051",
	"logo_url":"https://s3.amazonaws.com/motherbrain-prod/vlogo_1675367205933",
	"day":"Tuesdays",
	"time":"2023-03-01T02:00:00+0000"
},{
	"url":"https://www.geekswhodrink.com/venues/2372959065",
	"lat":"30.5692879",
	"long":"-97.6871586",
	"name":"Bar Louie (Round Rock) (Starts on March 21!)",
	"address":"270 Bass Pro Blvd. Round Rock, TX 78655",
	"logo_url":"https://s3.amazonaws.com/motherbrain-prod/vlogo_1675973324567",
	"day":"Tuesdays",
	"time":"2023-03-22T01:00:00+0000"
},{
	"url":"https://www.geekswhodrink.com/venues/31603338",
	"lat":"30.1692795",
	"long":"-97.8266672",
	"name":"Moontower Saloon",
	"address":"10212 Manchaca Rd Austin, TX 78748",
	"logo_url":"https://s3.amazonaws.com/motherbrain-prod/vlogo_1503084926170",
	"day":"Tuesdays",
	"time":"2021-05-12T02:00:00+0000"
},{
	"url":"https://www.geekswhodrink.com/venues/2129518391",
	"lat":"30.38346",
	"long":"-97.7374266",
	"name":"Dave and Buster&#039;s - Austin",
	"address":"9333 Research Blvd, Suite A600 Austin, TX 78759",
	"logo_url":"https://s3.amazonaws.com/motherbrain-prod/vlogo_1655487982847",
	"day":"Tuesdays",
	"time":"2022-07-13T01:30:00+0000"
},{
	"url":"https://www.geekswhodrink.com/venues/2172615722",
	"lat":"30.2407046",
	"long":"-97.7858874",
	"name":"The Garden - the 704",
	"address":"3403 S Lamar Blvd Austin, TX 78704",
	"logo_url":"https://s3.amazonaws.com/motherbrain-prod/vlogo_1658775354498",
	"day":"Tuesdays",
	"time":"2022-08-24T00:45:00+0000"
},{
	"url":"https://www.geekswhodrink.com/venues/2378780571",
	"lat":"30.0820016",
	"long":"-97.8431269",
	"name":"Meridian (Starts on March 6!)",
	"address":"200 Main St, Buda, TX 78610",
	"logo_url":"https://s3.amazonaws.com/motherbrain-prod/vlogo_1676480764475",
	"day":"Mondays",
	"time":"2023-03-07T02:00:00+0000"
},{
	"url":"https://www.geekswhodrink.com/venues/2075345597",
	"lat":"30.384047",
	"long":"-97.7233607",
	"name":"Turnstile Coffee Beer and Spirits",
	"address":"10025 Burnet Road Austin, TX 78758",
	"logo_url":"https://s3.amazonaws.com/motherbrain-prod/vlogo_1650558993770",
	"day":"Tuesdays",
	"time":"2022-05-18T01:00:00+0000"
},{
	"url":"https://www.geekswhodrink.com/venues/2351719969",
	"lat":"30.5084064",
	"long":"-97.6785445",
	"name":"Legends 1878",
	"address":"101 East Main Street Round Rock, TX 78664",
	"logo_url":"https://s3.amazonaws.com/motherbrain-prod/vlogo_1674245133042",
	"day":"Tuesdays",
	"time":"2023-03-01T02:30:00+0000"
},{
	"url":"https://www.geekswhodrink.com/venues/2357160623",
	"lat":"30.3911437",
	"long":"-97.71536",
	"name":"Circle Brewing Company (Starts on March 23!)",
	"address":"2340 W Braker Ln Ste B Austin, TX 78758",
	"logo_url":"https://s3.amazonaws.com/motherbrain-prod/vlogo_1674693890832",
	"day":"Thursdays",
	"time":"2023-03-24T00:30:00+0000"
},