[
  {
    "name": "Temperance Beer Company",
    "address": "2000 W. Dempster St.",
    "city": "Evanston",
    "state": "IL",
    "zip": "60202",
    "phone": "(847) 864-1000",
    "day": "Sundays",
    "time": "3:00",
    "logo_url": "https://www.pubtriviausa.com/wp-content/uploads/2017/10/TEMPERANCE-LOGO.png",
    "latitude": 42.040567,
    "longitude": -87.745361
    },
    {
    "name": "Une Annee Brewery",
    "address": "6343 W. Gross Point Rd.",
    "city": "Niles",
    "state": "IL",
    "zip": "60714",
    "phone": "(847) 635-0655",
    "day": "Mondays",
    "time": "7:00",
    "logo_url": "https://www.pubtriviausa.com/wp-content/uploads/2021/06/outsidebrewery.jpg",
    "latitude": 42.041707,
    "longitude": -87.808097
    },
    {
    "name": "Mudcats",
    "address": "117 W. Slade St.",
    "city": "Palatine",
    "state": "IL",
    "zip": "60067",
    "phone": "(847) 485-8093",
    "day": "Mondays",
    "time": "7:00",
    "logo_url": "https://www.pubtriviausa.com/wp-content/uploads/2022/08/mudcats.png",
    "latitude": 42.111307,
    "longitude": -88.036880
    },
    {
    "name": "Home Bar",
    "address": "1227 N. Rand Rd.",
    "city": "Arlington Heights",
    "state": "IL",
    "zip": "60004",
    "phone": "(847) 577-4663",
    "day": "Tuesdays",
    "time": "7:00",
    "logo_url": "https://www.pubtriviausa.com/wp-content/uploads/2013/02/Home-logo.jpeg",
    "latitude": 42.123931,
    "longitude": -87.992679
    },
    {
    "name": "Beer on the Wall",
    "address": "2 N. Dunton Ave.",
    "city": "Arlington Heights",
    "state": "IL",
    "zip": "60005",
    "phone": "(847) 989-2651",
    "day": "Tuesdays",
    "time": "7:00",
    "logo_url": "https://www.pubtriviausa.com/wp-content/uploads/2021/05/BOTW-logo-color.png",
    "latitude": 42.082659,
    "longitude": -87.981686
    },
    {
      "name": "River Street Tavern",
      "address": "102 N. River St.",
      "city": "East Dundee",
      "state": "IL",
      "zip": "60118",
      "phone": "(224) 293-2033",
      "day": "Tuesdays",
      "time": "7:00",
      "logo_url": "https://www.pubtriviausa.com/wp-content/uploads/2017/03/RIVER-STREET-LOGO.jpg",
      "latitude": 42.096693,
      "longitude": -88.276947
    },
    {
      "name": "Bar Down Sports Grill",
      "address": "2354 Higgins Rd.",
      "city": "Hoffman Estates",
      "state": "IL",
      "zip": "60169",
      "phone": "(847) 310-3227",
      "day": "Tuesdays",
      "time": "7:00",
      "logo_url": "https://www.pubtriviausa.com/wp-content/uploads/2021/04/bar",
      "latitude": 42.052865,
      "longitude": -88.122081
    },
    {
      "name": "Rep's Place",
      "address": "3200 Kirchoff Rd.",
      "city": "Rolling Meadows",
      "state": "IL",
      "zip": "60008",
      "phone": "(224) 347-2916",
      "day": "Tuesdays",
      "time": "7:00",
      "logo_url": "https://www.pubtriviausa.com/wp-content/uploads/2019/04/REPS-logo.png",
      "latitude": 42.076743,
      "longitude": -88.015874
    },
    {
      "name": "Gators Wing Shack",
      "address": "1719 N. Rand Rd.",
      "city": "Palatine",
      "state": "IL",
      "zip": "60074",
      "phone": "(847) 705-0555",
      "day": "Tuesdays",
      "time": "8:00",
      "logo_url": "https://www.pubtriviausa.com/wp-content/uploads/2019/04/gators_logo.png",
      "latitude": 42.138167,
      "longitude": -88.007917
    },
    {
      "name": "Off the Wall Cafe",
      "address": "104 Main St.",
      "city": "Park Ridge",
      "state": "IL",
      "zip": "60068",
      "phone": "(847) 989-1458",
      "day": "Wednesdays",
      "time": "7:00",
      "logo_url": "https://www.pubtriviausa.com/wp-content/uploads/2019/12/OFF-THE-WALL-LOGO.png",
      "latitude": 42.011278,
      "longitude": -87.859417
    },
{
    "name": "DURTY NELLIES",
    "address": "180 Smith St.",
    "city": "Palatine",
    "state": "IL",
    "zip": "60067",
    "phone": "(847) 358-9150",
    "day": "Wednesdays",
    "time": "7:00",
    "logo_url": "https://www.pubtriviausa.com/wp-content/uploads/2013/02/durty-Copy.jpg"
},
{
    "name": "AT WORK SPORTS BAR & GRILL",
    "address": "1190 E. Higgins Rd.",
    "city": "Elk Grove Village",
    "state": "IL",
    "zip": "60007",
    "phone": "(847) 871-9490",
    "day": "Wednesdays",
    "time": "7:00",
    "logo_url": "https://www.pubtriviausa.com/wp-content/uploads/2016/05/AT-WORK-LOGO.jpg"
},
{
    "name": "SKETCHBOOK BREWING COMPANY",
    "address": "4901 Main St.",
    "city": "Skokie",
    "state": "IL",
    "zip": "60077",
    "phone": "(847) 588-0652",
    "day": "Wednesdays",
    "time": "7:00",
    "logo_url": "https://www.pubtriviausa.com/wp-content/uploads/2020/10/Sketchbook.png"
},
{
    "name": "RIDGEVILLE TAVERN",
    "address": "1520 Sherman Ave.",
    "city": "Evanston",
    "state": "IL",
    "zip": "60201",
    "phone": "(847) 905-0485",
    "day": "Wednesdays",
    "time": "7:00",
    "logo_url": "https://www.pubtriviausa.com/wp-content/uploads/2021/10/Ridgeville-Tavern_Logo.png"
},{
    "name": "MRS. P AND ME",
    "address": "100 E. Prospect Ave.",
    "city": "Mt. Prospect",
    "state": "IL",
    "zip": "60056",
    "phone": "(847) 259-9724",
    "day": "Wednesdays",
    "time": "8:00",
    "logo_url": "https://www.pubtriviausa.com/wp-content/uploads/2013/02/Mrs-P-and-Me-logo.jpg"
},
{
    "name": "VILLAGE PIZZA & PUB",
    "address": "2496 N. Randall Rd.",
    "city": "Elgin",
    "state": "IL",
    "zip": "60123",
    "phone": "(847) 551-1088",
    "day": "Thursdays",
    "time": "6:00",
    "logo_url": "https://www.pubtriviausa.com/wp-content/uploads/2019/11/VILLAGE-PIZZA-LOGO.png"
},
{
    "name": "GATSBY'S PIZZA & PUB",
    "address": "427 E. Rand Rd.",
    "city": "Arlington Heights",
    "state": "IL",
    "zip": "60004",
    "phone": "(847) 253-7200",
    "day": "Thursdays",
    "time": "7:00",
    "logo_url": "https://www.pubtriviausa.com/wp-content/uploads/2022/08/Gatsbys-logo.png"
},
{
    "name": "VILLAGE INN PIZZERIA",
    "address": "8050 Lincoln Ave.",
    "city": "Skokie",
    "state": "IL",
    "zip": "60077",
    "phone": "(847) 675-3737",
    "day": "Thursdays",
    "time": "7:00",
    "logo_url": "https://www.pubtriviausa.com/wp-content/uploads/2021/02/VI-logo-sm-2.png"
},
{
    "name": "OVER/UNDER SPORTS BAR",
    "address": "2723 N. Halsted St.",
    "city": "Chicago",
    "state": "IL",
    "zip": "60614",
    "phone": "(773) 687-9930",
    "day": "Thursdays",
    "time": "7:00",
    "logo_url": "https://www.pubtriviausa.com/wp-content/uploads/2023/02/over.png"
},
{
    "name": "PEGGY KINNANE'S IRISH PUB",
    "address": "8 N. Vail Ave.",
    "city": "Arlington Heights",
    "state": "IL",
    "zip": "60004",
    "phone": "(847) 577-7733",
    "day": "Thursdays",
    "time": "7:30",
    "logo_url": "https://www.pubtriviausa.com/wp-content/uploads/2013/02/peggy.jpg"
},
{
    "name": "ROSATI'S SPORTS PUB",
    "address": "3061 N. Barrington Rd.",
    "city": "Hoffman Estates",
    "state": "IL",
    "zip": "60192",
    "phone": "(847) 648-9000",
    "day": "Saturdays",
    "time": "7:00",
    "logo_url": "https://www.pubtriviausa.com/wp-content/uploads/2019/08/ROSATIS-LOGO.png"
},
{
    "name": "O'NEILL'S PUB",
    "address": "236 E. St. Charles Rd.",
    "city": "Lombard",
    "state": "IL",
    "zip": "60148",
    "phone": "(630) 627-1600",
    "day": "Tuesdays",
    "time": "7:00",
    "logo_url": "https://www.pubtriviausa.com/wp-content/uploads/2015/09/ONeills-logo.png"
},
{
    "name": "ASHBURY'S AT BOUGHTON RIDGE",
    "address": "335 E. Boughton Rd.",
    "city": "Bolingbrook",
    "state": "IL",
    "zip": "60440",
    "phone": "(630) 739-2377",
    "day": "Tuesdays",
    "time": "7:00",
    "logo_url": "https://www.pubtriviausa.com/wp-content/uploads/2013/12/Ashbury-Logo.jpg"
},
{
    "name": "ASHBURY'S AT BOUGHTON RIDGE",
    "address": "335 E. Boughton Rd.",
    "city": "Bolingbrook",
    "state": "IL",
    "zip": "60440",
    "phone": "(630) 739-2377",
    "day": "Tuesdays",
    "time": "7:00",
    "logo_url": "https://www.pubtriviausa.com/wp-content/uploads/2013/12/Ashbury-Logo.jpg"
  },
  {
    "name": "WARREN'S ALE HOUSE",
    "address": "51 Town Square",
    "city": "Wheaton",
    "state": "IL",
    "zip": "60189",
    "phone": "(630) 462-5126",
    "day": "Tuesdays",
    "time": "7:00",
    "logo_url": "https://www.pubtriviausa.com/wp-content/uploads/2013/02/Warrens.jpg"
  },
  {
    "name": "ROSATI'S PIZZA",
    "address": "877 E. Geneva Rd.",
    "city": "Carol Stream",
    "state": "IL",
    "zip": "60188",
    "phone": "(630) 690-9494",
    "day": "Wednesdays",
    "time": "6:30",
    "logo_url": "https://www.pubtriviausa.com/wp-content/uploads/2018/05/Rosatis-CS-Logo.png"
  },
  {
    "name": "FRONT ROW BAR-EATERY-EVENTS",
    "address": "14903 Founders Crossing",
    "city": "Homer Glen",
    "state": "IL",
    "zip": "60491",
    "phone": "(708) 645-7000",
    "day": "Wednesdays",
    "time": "7:00",
    "logo_url": "https://www.pubtriviausa.com/wp-content/uploads/2017/10/FrontRowforGoogle.jpg"
  },
  {
    "name": "ELLYN'S TAP AND GRILL",
    "address": "940 Roosevelt Rd.",
    "city": "Glen Ellyn",
    "state": "IL",
    "zip": "60137",
    "phone": "(630) 942-0940",
    "day": "Wednesdays",
    "time": "7:00",
    "logo_url": "https://www.pubtriviausa.com/wp-content/uploads/2017/06/ellyns.jpg"
  },
  {
    "name": "PJ'S COURTHOUSE TAVERN",
    "address": "202 W. State St.",
    "city": "Sycamore",
    "state": "IL",
    "zip": "60178",
    "phone": "(815) 895-9253",
    "day": "Wednesdays",
    "time": "7:00",
    "logo_url": "https://www.pubtriviausa.com/wp-content/uploads/2019/12/PJs-logo.png"
  },
  {
    "name": "LAVERGNE'S TAVERN",
    "address": "6546 W. Windsor Ave.",
    "city": "Berwyn",
    "state": "IL",
    "zip": "60402",
    "phone": "(708) 956-7405",
    "day": "Wednesdays",
    "time": "7:00",
    "logo_url": "https://www.pubtriviausa.com/wp-content/uploads/2016/11/LavergnesColor.jpg"
  },
  {
    "name": "STILIN'S NEIGHBORHOOD PUB AND GRILL",
    "address": "2029 Ogden Ave.",
    "city": "Lisle",
    "state": "IL",
    "zip": "60532",
    "phone": "(630) 969-2333",
    "day": "Wednesdays",
    "time": "7:30",
    "logo_url": "https://www.pubtriviausa.com/wp-content/uploads/2021/03/Stilins-scaled.gif"
  },
  {
    "name": "MANHATTAN'S AMERICAN BAR",
    "address": "300 S. Schmale Rd.",
    "city": "Carol Stream",
    "state": "IL",
    "zip": "60188",
    "phone": "(630) 871-2991",
    "day": "Thursdays",
    "time": "7:00",
    "logo_url": "https://www.pubtriviausa.com/wp-content/uploads/2013/02/manhattans.jpg"
  },
  {
    "name": "CARSON TAP HOUSE",
    "address": "823 Liberty St.",
    "city": "Morris",
    "state": "IL",
    "zip": "60450",
    "phone": "(815) 513-3924",
    "day": "Thursdays",
    "time": "7:00",
    "logo_url": "https://www.pubtriviausa.com/wp-content/uploads/2017/02/Carson-Logo.png"
  },
  {
    "name": "BRYAN'S AMERICAN GRILLE",
    "address": "2009 Ogden Ave.",
    "city": "Downers Grove",
    "state": "IL",
    "zip": "60515",
    "phone": "(630) 725-9110",
    "day": "Thursdays",
    "time": "7:00",
    "logo_url": "https://www.pubtriviausa.com/wp-content/uploads/2016/06/bryans-american-grille-logo.gif"
  },
  {
    "name": "BUFFO'S",
    "address": "431 Sheridan Rd.",
    "city": "Highwood",
    "state": "IL",
    "zip": "60040",
    "phone": "(847) 432-0301",
    "day": "Mondays",
    "time": "7:00",
    "logo_url": "https://www.pubtriviausa.com/wp-content/uploads/2013/10/Buffos-logo.jpg"
  },
  {
    "name": "THE HUNGRY MULE",
    "address": "463 S. Rand Rd.",
    "city": "Lake Zurich",
    "state": "IL",
    "zip": "60047",
    "phone": "(847) 540-8000",
    "day": "Tuesdays",
    "time": "7:00",
    "logo_url": "https://www.pubtriviausa.com/wp-content/uploads/2021/03/the-hungry-mule-2color.png"
  },
  {
    "name": "BOBBERS",
    "address": "710 N. Old Rand Rd.",
    "city": "Lake Zurich",
    "state": "IL",
    "zip": "60047",
    "phone": "(847) 847-1620",
    "day": "Tuesdays",
    "time": "7:00",
    "logo_url": "https://www.pubtriviausa.com/wp-content/uploads/2018/10/BOBBERS-Logo.gif"
  },
  {
    "name": "GALATI'S HIDEAWAY",
    "address": "800 Feinberg Ct.",
    "city": "Cary",
    "state": "IL",
    "zip": "60013",
    "phone": "(847) 516-3663",
    "day": "Tuesdays",
    "time": "7:00",
    "logo_url": "https://www.pubtriviausa.com/wp-content/uploads/2021/11/Galatis-scaled.jpg"
  },
  {
    "name": "OLD MUNICH TAVERN",
    "address": "582 N. Milwaukee Ave.",
    "city": "Wheeling",
    "state": "IL",
    "zip": "60090",
    "phone": "(847) 947-2696",
    "day": "Tuesdays",
    "time": "7:00",
    "logo_url": "https://www.pubtriviausa.com/wp-content/uploads/2022/12/Old-Tavern-Munich-Logo.png"
  },
  {
    "name": "SOFIE'S WHISKEY & WINE",
    "address": "150 S Eastwood Dr.",
    "city": "Woodstock",
    "state": "IL",
    "zip": "60098",
    "phone": "(815) 527-7337",
    "day": "Tuesdays",
    "time": "7:00",
    "logo_url": "https://www.pubtriviausa.com/wp-content/uploads/2022/12/Sophie.jpg"
  },
  {
    "name": "CHASER'S BAR AND GRILL",
    "address": "830 S. Rand Rd.",
    "city": "Lake Zurich",
    "state": "IL",
    "zip": "60047",
    "phone": "(847) 550-9600",
    "day": "Wednesdays",
    "time": "7:00",
    "logo_url": "https://www.pubtriviausa.com/wp-content/uploads/2014/10/1365948086LOGO_CHASERS_Wide.png"
  },
  {
    "name": "TIGHTHEAD BREWING CO.",
    "address": "161 N. Archer Ave.",
    "city": "Mundelein",
    "state": "IL",
    "zip": "60060",
    "phone": "(847) 970-9174",
    "day": "Wednesdays",
    "time": "7:00",
    "logo_url": "https://www.pubtriviausa.com/wp-content/uploads/2013/02/Tighthead.jpg"
  },
  {
    "name": "VAULT 232",
    "address": "35 W. Main St.",
    "city": "Lake Zurich",
    "state": "IL",
    "zip": "60047",
    "phone": "(847) 438-4900",
    "day": "Thursdays",
    "time": "6:30",
    "logo_url": "https://www.pubtriviausa.com/wp-content/uploads/2022/09/Logo-Vault232.png"
  },
  {
    "name": "SCORCHED EARTH BREWERY",
    "address": "203 Berg St.",
    "city": "Algonquin",
    "state": "IL",
    "zip": "60102",
    "phone": "(815) 451-0777",
    "day": "Thursdays",
    "time": "7:00",
    "logo_url": "https://www.pubtriviausa.com/wp-content/uploads/2015/01/SE-Logo-2c-RGB.jpg"
  },
  {
    "name": "STAGE LEFT CAFÃ‰",
    "address": "125 W. Van Buren St.",
    "city": "Woodstock",
    "state": "IL",
    "zip": "60098",
    "phone": "(815) 337-1395",
    "day": "Thursdays",
    "time": "7:00",
    "logo_url": "https://www.pubtriviausa.com/wp-content/uploads/2021/06/Stage-left.jpg"
  },
  {
    "name": "BROKEN EARTH WINERY",
    "address": "219 Robert Parker Coffin Pkwy.",
    "city": "Long Grove",
    "state": "IL",
    "zip": "60047",
    "phone": "(847) 383-5052",
    "day": "Thursdays",
    "time": "7:00",
    "logo_url": "https://www.pubtriviausa.com/wp-content/uploads/2019/12/BROKEN-EARTH-LOGO.png"
  },
  {
    "name": "DC COBB'S",
    "address": "1204 N. Green St.",
    "city": "McHenry",
    "state": "IL",
    "zip": "60050",
    "phone": "(815) 332-0696",
    "day": "Thursdays",
    "time": "7:00",
    "logo_url": "https://www.pubtriviausa.com/wp-content/uploads/2021/11/DC-Cobb.png"
  },

{
    "name": "SUNSET GRILL",
    "address": "25276 W. Grass Lake Rd.",
    "city": "Antioch",
    "state": "IL",
    "zip": "60002",
    "phone": "(847) 603-1441",
    "day": "Thursdays",
    "time": "7:00",
    "logo_url": "https://www.pubtriviausa.com/wp-content/uploads/2022/11/fsunset-grill-logo-1-logo.png"
  },
  {
    "name": "LIGHT THE LAMP BREWERY",
    "address": "10 N. Lake St.",
    "city": "Grayslake",
    "state": "IL",
    "zip": "60030",
    "phone": "(847) 752-8489",
    "day": "Thursdays",
    "time": "7:00",
    "logo_url": "https://www.pubtriviausa.com/wp-content/uploads/2015/02/Light-The-Lamp-Logo.jpeg"
  },
  {
    "name": "DOWNING'S",
    "address": "431 S. Milwaukee Ave.",
    "city": "Libertyville",
    "state": "IL",
    "zip": "60048",
    "phone": "(847) 362-4020",
    "day": "Thursdays",
    "time": "7:30",
    "logo_url": "https://www.pubtriviausa.com/wp-content/uploads/2022/05/downings-logo.jpg"
  },
  {
    "name": "CHANCES BAR & VIDEO GAMING",
    "address": "455 S. Route 45",
    "city": "Lindenhurst",
    "state": "IL",
    "zip": "60046",
    "phone": "(224) 372-7493",
    "day": "Wednesdays",
    "time": "7:00",
    "logo_url": "https://www.pubtriviausa.com/wp-content/uploads/2016/01/CHANCES-LOGO.jpeg"
  },
  {
    "name": "WOODFIRE TAVERN",
    "address": "4868 IL-83",
    "city": "Long Grove",
    "state": "IL",
    "zip": "60047",
    "phone": "(847) 478-1160",
    "day": "Wednesdays",
    "time": "7:00",
    "logo_url": "https://www.pubtriviausa.com/wp-content/uploads/2023/01/Woodfire-logo-1.png"
  },
  {
    "name": "EMIL'S TAVERN ON CENTER",
    "address": "161 Center St.",
    "city": "Grayslake",
    "state": "IL",
    "zip": "60030",
    "phone": "(847) 543-8879",
    "day": "Wednesdays",
    "time": "8:00",
    "logo_url": "https://www.pubtriviausa.com/wp-content/uploads/2018/12/EMILS-LOGO.jpg"
  }]